{"type":"FeatureCollection","features":[
{"type":"Feature","geometry":{"type":"Point","coordinates":[105.8298454,21.0190817]},"properties":{"crossing":"zebra","highway":"crossing"}},
{"type":"Feature","geometry":{"type":"Point","coordinates":[105.8233767,21.0162435]},"properties":{"crossing":"traffic_signals","highway":"traffic_signals","traffic_signals":"traffic_lights","traffic_signals:direction":"forward"}},
{"type":"Feature","geometry":{"type":"Point","coordinates":[105.8261857,21.0266551]},"properties":{"created_by":"Merkaartor 0.12"}},
{"type":"Feature","geometry":{"type":"Point","coordinates":[105.8231985,21.015882]},"properties":{"created_by":"Merkaartor 0.12"}},
{"type":"Feature","geometry":{"type":"Point","coordinates":[105.8237853,21.0153101]},"properties":{"created_by":"Merkaartor 0.12"}},
{"type":"Feature","geometry":{"type":"Point","coordinates":[105.8215575,21.0189588]},"properties":{"created_by":"JOSM"}},
{"type":"Feature","geometry":{"type":"Point","coordinates":[105.8204372,21.0127621]},"properties":{"amenity":"atm","currency:VND":"yes","name":"DongA Bank","number":"1","operator":"DongA Bank"}},
{"type":"Feature","geometry":{"type":"Point","coordinates":[105.8277638,21.0297549]},"properties":{"amenity":"restaurant","name":"Trà Xuân Tửu","note":"Tr$$ Xu$$n T$$$u"}},
{"type":"Feature","geometry":{"type":"Point","coordinates":[105.831529,21.021849]},"properties":{"amenity":"atm","name":"VPBank","operator":"VPBank"}},
{"type":"Feature","geometry":{"type":"Point","coordinates":[105.817288,21.0185278]},"properties":{"noexit":"yes"}},
{"type":"Feature","geometry":{"type":"Point","coordinates":[105.820126,21.0130379]},"properties":{"amenity":"atm","operator":"Eab"}},
{"type":"Feature","geometry":{"type":"Point","coordinates":[105.8214283,21.0246149]},"properties":{"amenity":"atm","operator":"Agribank - ATM"}},
{"type":"Feature","geometry":{"type":"Point","coordinates":[105.82963,21.0192871]},"properties":{"amenity":"atm","operator":"MHB Bank - ATM"}},
{"type":"Feature","geometry":{"type":"Point","coordinates":[105.8178596,21.0201992]},"properties":{"amenity":"atm","operator":"SHB - ATM"}},
{"type":"Feature","geometry":{"type":"Point","coordinates":[105.8237779,21.0169486]},"properties":{"amenity":"atm","operator":"Vpb - ATM"}},
{"type":"Feature","geometry":{"type":"Point","coordinates":[105.8178785,21.0201968]},"properties":{"amenity":"atm","operator":"Techcombank - ATM"}},
{"type":"Feature","geometry":{"type":"Point","coordinates":[105.8181506,21.020594]},"properties":{"amenity":"atm","operator":"BIDV - Pos - ATM"}},
{"type":"Feature","geometry":{"type":"Point","coordinates":[105.8268249,21.0128373]},"properties":{"amenity":"atm","operator":"Vietcombank - ATM"}},
{"type":"Feature","geometry":{"type":"Point","coordinates":[105.8154892,21.0169229]},"properties":{"amenity":"atm","operator":"Techcombank - ATM"}},
{"type":"Feature","geometry":{"type":"Point","coordinates":[105.8264225,21.0124317]},"properties":{"amenity":"atm","operator":"MHB Bank - ATM"}},
{"type":"Feature","geometry":{"type":"Point","coordinates":[105.8192091,21.0137707]},"properties":{"amenity":"atm","name":"Saigon Bank","operator":"Saigon Bank"}},
{"type":"Feature","geometry":{"type":"Point","coordinates":[105.831626,21.0286708]},"properties":{"amenity":"atm","operator":"Saigon Bank - ATM"}},
{"type":"Feature","geometry":{"type":"Point","coordinates":[105.8275342,21.0140437]},"properties":{"amenity":"atm","operator":"Eab - ATM"}},
{"type":"Feature","geometry":{"type":"Point","coordinates":[105.8202147,21.0129422]},"properties":{"amenity":"atm","currency:VND":"yes","name":"DongA Bank","operator":"DongA Bank"}},
{"type":"Feature","geometry":{"type":"Point","coordinates":[105.817868,21.0202058]},"properties":{"amenity":"atm","operator":"Vietcombank - ATM"}},
{"type":"Feature","geometry":{"type":"Point","coordinates":[105.828466,21.0158769]},"properties":{"amenity":"atm","operator":"Agribank - ATM"}},
{"type":"Feature","geometry":{"type":"Point","coordinates":[105.8167355,21.0189653]},"properties":{"amenity":"atm","operator":"Vietcombank - ATM"}},
{"type":"Feature","geometry":{"type":"Point","coordinates":[105.8154952,21.0169335]},"properties":{"amenity":"atm","operator":"SHB - ATM"}},
{"type":"Feature","geometry":{"type":"Point","coordinates":[105.827415,21.0245248]},"properties":{"amenity":"atm","operator":"Agribank - ATM"}},
{"type":"Feature","geometry":{"type":"Point","coordinates":[105.8173191,21.0194123]},"properties":{"amenity":"atm","operator":"Vietinbank - ATM"}},
{"type":"Feature","geometry":{"type":"Point","coordinates":[105.8189454,21.0222746]},"properties":{"amenity":"atm","operator":"Agribank - ATM"}},
{"type":"Feature","geometry":{"type":"Point","coordinates":[105.8167355,21.0189554]},"properties":{"amenity":"atm","operator":"Agribank - ATM"}},
{"type":"Feature","geometry":{"type":"Point","coordinates":[105.8202213,21.0129634]},"properties":{"amenity":"atm","name":"VP Bank","operator":"VP Bank"}},
{"type":"Feature","geometry":{"type":"Point","coordinates":[105.8185149,21.0141988]},"properties":{"amenity":"atm","brand":"VietinBank","brand:wikidata":"Q7928459","name":"VietinBank","operator":"VietinBank","operator:wikidata":"Q7928459"}},
{"type":"Feature","geometry":{"type":"Point","coordinates":[105.8274711,21.0139712]},"properties":{"amenity":"atm","operator":"Saigon Bank - ATM"}},
{"type":"Feature","geometry":{"type":"Point","coordinates":[105.8276564,21.014225]},"properties":{"amenity":"atm","operator":"Donga Bank - ATM"}},
{"type":"Feature","geometry":{"type":"Point","coordinates":[105.8281982,21.0151308]},"properties":{"amenity":"atm","operator":"Agribank - ATM"}},
{"type":"Feature","geometry":{"type":"Point","coordinates":[105.8272818,21.0135684]},"properties":{"amenity":"atm","brand":"VietinBank","brand:wikidata":"Q7928459","operator":"VietinBank","operator:wikidata":"Q7928459"}},
{"type":"Feature","geometry":{"type":"Point","coordinates":[105.8290994,21.0292513]},"properties":{"amenity":"atm","operator":"ANZ - ATM"}},
{"type":"Feature","geometry":{"type":"Point","coordinates":[105.827651,21.0142294]},"properties":{"amenity":"atm","operator":"Techcombank - ATM"}},
{"type":"Feature","geometry":{"type":"Point","coordinates":[105.8201086,21.0130373]},"properties":{"amenity":"atm","name":"Saigon Bank","operator":"Saigon Bank"}},
{"type":"Feature","geometry":{"type":"Point","coordinates":[105.8272905,21.0134778]},"properties":{"amenity":"atm","brand":"Saigon Bank","operator":"Saigon Bank"}},
{"type":"Feature","geometry":{"type":"Point","coordinates":[105.8275189,21.0139687]},"properties":{"amenity":"atm","operator":"Dongabank - ATM"}},
{"type":"Feature","geometry":{"type":"Point","coordinates":[105.8309984,21.020609]},"properties":{"amenity":"atm","operator":"Techcombank - ATM"}},
{"type":"Feature","geometry":{"type":"Point","coordinates":[105.817413,21.0198684]},"properties":{"amenity":"atm","operator":"Dong A - ATM"}},
{"type":"Feature","geometry":{"type":"Point","coordinates":[105.8199155,21.0133631]},"properties":{"amenity":"atm","brand":"Techcombank","brand:wikidata":"Q10541776","name":"Techcombank","operator":"Techcombank","operator:wikidata":"Q10541776"}},
{"type":"Feature","geometry":{"type":"Point","coordinates":[105.8236706,21.0166631]},"properties":{"amenity":"atm","operator":"Techcombank - ATM"}},
{"type":"Feature","geometry":{"type":"Point","coordinates":[105.8222255,21.022803]},"properties":{"bus":"yes","highway":"bus_stop","name":"426 Đê La Thành","public_transport":"platform"}},
{"type":"Feature","geometry":{"type":"Point","coordinates":[105.8239372,21.0176818]},"properties":{"bus":"yes","highway":"bus_stop","name":"Hồ Hoàng Cầu","public_transport":"platform"}},
{"type":"Feature","geometry":{"type":"Point","coordinates":[105.8253791,21.0112117]},"properties":{"bus":"yes","highway":"bus_stop","name":"Gò Đống Đa","public_transport":"platform"}},
{"type":"Feature","geometry":{"type":"Point","coordinates":[105.8242683,21.0176241]},"properties":{"bus":"yes","highway":"bus_stop","name":"59 Hoàng Cầu","public_transport":"platform"}},
{"type":"Feature","geometry":{"type":"Point","coordinates":[105.8307557,21.0199968]},"properties":{"bus":"yes","highway":"bus_stop","name":"283 Tôn Đức Thắng","public_transport":"platform"}},
{"type":"Feature","geometry":{"type":"Point","coordinates":[105.8304443,21.0199878]},"properties":{"bus":"yes","highway":"bus_stop","name":"276 Tôn Đức Thắng","public_transport":"platform"}},
{"type":"Feature","geometry":{"type":"Point","coordinates":[105.8239248,21.0120606]},"properties":{"bus":"yes","highway":"bus_stop","name":"Đối diện 105 Đặng Tiến Đông","public_transport":"platform"}},
{"type":"Feature","geometry":{"type":"Point","coordinates":[105.8200462,21.0130333]},"properties":{"bus":"yes","highway":"bus_stop","name":"176 Thái Hà","public_transport":"platform"}},
{"type":"Feature","geometry":{"type":"Point","coordinates":[105.8181999,21.020865]},"properties":{"bus":"yes","highway":"bus_stop","name":"23-25 Láng Hạ","public_transport":"platform"}},
{"type":"Feature","geometry":{"type":"Point","coordinates":[105.8290782,21.0168153]},"properties":{"bus":"yes","highway":"bus_stop","name":"83 Nguyễn Lương Bằng","public_transport":"platform"}},
{"type":"Feature","geometry":{"type":"Point","coordinates":[105.824554,21.0122586]},"properties":{"amenity":"shelter"}},
{"type":"Feature","geometry":{"type":"Point","coordinates":[105.8240075,21.0182109]},"properties":{"addr:country":"VN","addr:district":"Đống Đa","addr:housenumber":"36","addr:street":"Phố Hoàng Cầu","amenity":"atm","brand":"Vietcombank","brand:wikidata":"Q6122995","name":"Vietcombank","operator":"Vietcombank","operator:wikidata":"Q6122995"}},
{"type":"Feature","geometry":{"type":"Point","coordinates":[105.8286245,21.029154]},"properties":{"addr:country":"VN","addr:district":"Đống Đa","addr:housenumber":"33C","addr:street":"Cát Linh","amenity":"atm","brand":"Vietcombank","brand:wikidata":"Q6122995","name":"Vietcombank","operator":"Vietcombank","operator:wikidata":"Q6122995"}},
{"type":"Feature","geometry":{"type":"Point","coordinates":[105.8302189,21.0291913]},"properties":{"addr:country":"VN","addr:district":"Đống Đa","addr:housenumber":"32","addr:street":"Cát Linh","amenity":"atm","brand":"Vietcombank","brand:wikidata":"Q6122995","name":"Vietcombank","operator":"Vietcombank","operator:wikidata":"Q6122995"}},
{"type":"Feature","geometry":{"type":"Point","coordinates":[105.8287614,21.0291344]},"properties":{"addr:country":"VN","addr:district":"Đống Đa","addr:housenumber":"33C","addr:street":"Cát Linh","amenity":"atm","brand":"Vietcombank","brand:wikidata":"Q6122995","name":"Vietcombank","operator":"Vietcombank","operator:wikidata":"Q6122995"}},
{"type":"Feature","geometry":{"type":"Point","coordinates":[105.8193027,21.0136292]},"properties":{"amenity":"atm"}},
{"type":"Feature","geometry":{"type":"Point","coordinates":[105.829899,21.018367]},"properties":{"crossing":"traffic_signals","highway":"crossing"}},
{"type":"Feature","geometry":{"type":"Point","coordinates":[105.829733,21.0185017]},"properties":{"crossing":"traffic_signals","highway":"traffic_signals","traffic_signals":"traffic_lights","traffic_signals:direction":"forward"}},
{"type":"Feature","geometry":{"type":"Point","coordinates":[105.8310205,21.0207896]},"properties":{"crossing":"marked","highway":"crossing"}},
{"type":"Feature","geometry":{"type":"Point","coordinates":[105.8253737,21.0099588]},"properties":{"addr:country":"VN","addr:district":"Đống Đa","addr:housenumber":"169","addr:street":"Tây Sơn","amenity":"atm","brand":"BIDV","brand:wikidata":"Q1003180","name":"BIDV","official_name":"Ngân hàng Đầu tư và Phát triển Việt Nam","official_name:en":"Bank for Investment and Development of Vietnam","official_name:vi":"Ngân hàng Đầu tư và Phát triển Việt Nam","operator":"BIDV","operator:wikidata":"Q1003180"}},
{"type":"Feature","geometry":{"type":"Point","coordinates":[105.8244961,21.0099675]},"properties":{"addr:country":"VN","addr:district":"Đống Đa","addr:housenumber":"198B","addr:street":"Tây Sơn","amenity":"atm","brand":"BIDV","brand:wikidata":"Q1003180","name":"BIDV","official_name":"Ngân hàng Đầu tư và Phát triển Việt Nam","official_name:en":"Bank for Investment and Development of Vietnam","official_name:vi":"Ngân hàng Đầu tư và Phát triển Việt Nam","operator":"BIDV","operator:wikidata":"Q1003180"}},
{"type":"Feature","geometry":{"type":"Point","coordinates":[105.8247768,21.0104205]},"properties":{"addr:country":"VN","addr:district":"Đống Đa","addr:housenumber":"176","addr:street":"Tây Sơn","amenity":"atm","brand":"BIDV","brand:wikidata":"Q1003180","name":"BIDV","official_name":"Ngân hàng Đầu tư và Phát triển Việt Nam","official_name:en":"Bank for Investment and Development of Vietnam","official_name:vi":"Ngân hàng Đầu tư và Phát triển Việt Nam","operator":"BIDV","operator:wikidata":"Q1003180"}},
{"type":"Feature","geometry":{"type":"Point","coordinates":[105.8252881,21.0105959]},"properties":{"addr:country":"VN","addr:district":"Đống Đa","addr:housenumber":"167","addr:street":"Tây Sơn","amenity":"atm","brand":"BIDV","brand:wikidata":"Q1003180","name":"BIDV","official_name":"Ngân hàng Đầu tư và Phát triển Việt Nam","official_name:en":"Bank for Investment and Development of Vietnam","official_name:vi":"Ngân hàng Đầu tư và Phát triển Việt Nam","operator":"BIDV","operator:wikidata":"Q1003180"}},
{"type":"Feature","geometry":{"type":"Point","coordinates":[105.8328034,21.0252368]},"properties":{"addr:country":"VN","addr:district":"Đống Đa","addr:housenumber":"160","addr:street":"Phố Tôn Đức Thắng","amenity":"atm","brand":"BIDV","brand:wikidata":"Q1003180","name":"BIDV","official_name":"Ngân hàng Đầu tư và Phát triển Việt Nam","official_name:en":"Bank for Investment and Development of Vietnam","official_name:vi":"Ngân hàng Đầu tư và Phát triển Việt Nam","operator":"BIDV","operator:wikidata":"Q1003180"}},
{"type":"Feature","geometry":{"type":"Point","coordinates":[105.8313677,21.0220493]},"properties":{"addr:country":"VN","addr:district":"Đống Đa","addr:housenumber":"210","addr:street":"Phố Tôn Đức Thắng","amenity":"atm","branch":"Phòng giao dịch số 8","brand":"BIDV","brand:wikidata":"Q1003180","name":"BIDV","official_name":"Ngân hàng Đầu tư và Phát triển Việt Nam","official_name:en":"Bank for Investment and Development of Vietnam","official_name:vi":"Ngân hàng Đầu tư và Phát triển Việt Nam","operator":"BIDV","operator:wikidata":"Q1003180"}},
{"type":"Feature","geometry":{"type":"Point","coordinates":[105.824145,21.0147088]},"properties":{"addr:country":"VN","addr:district":"Đống Đa","addr:housenumber":"69","addr:street":"Phố Trần Quang Diệu","amenity":"atm","brand":"BIDV","brand:wikidata":"Q1003180","name":"BIDV","official_name":"Ngân hàng Đầu tư và Phát triển Việt Nam","official_name:en":"Bank for Investment and Development of Vietnam","official_name:vi":"Ngân hàng Đầu tư và Phát triển Việt Nam","operator":"BIDV","operator:wikidata":"Q1003180"}},
{"type":"Feature","geometry":{"type":"Point","coordinates":[105.8182483,21.0207239]},"properties":{"addr:country":"VN","addr:district":"Ba Đình","addr:housenumber":"25","addr:street":"Láng Hạ","amenity":"atm","brand":"BIDV","brand:wikidata":"Q1003180","name":"BIDV","official_name":"Ngân hàng Đầu tư và Phát triển Việt Nam","official_name:en":"Bank for Investment and Development of Vietnam","official_name:vi":"Ngân hàng Đầu tư và Phát triển Việt Nam","operator":"BIDV","operator:wikidata":"Q1003180"}},
{"type":"Feature","geometry":{"type":"Point","coordinates":[105.827412,21.024685]},"properties":{"addr:country":"VN","addr:district":"Đống Đa","addr:housenumber":"114","addr:street":"Phố Hào Nam","amenity":"atm","brand":"BIDV","brand:wikidata":"Q1003180","name":"BIDV","official_name":"Ngân hàng Đầu tư và Phát triển Việt Nam","official_name:en":"Bank for Investment and Development of Vietnam","official_name:vi":"Ngân hàng Đầu tư và Phát triển Việt Nam","operator":"BIDV","operator:wikidata":"Q1003180"}},
{"type":"Feature","geometry":{"type":"Point","coordinates":[105.8329254,21.0262306]},"properties":{"addr:country":"VN","addr:district":"Đống Đa","addr:housenumber":"16","addr:street":"Đoàn Thị Điểm","amenity":"atm","brand":"BIDV","brand:wikidata":"Q1003180","name":"BIDV","official_name":"Ngân hàng Đầu tư và Phát triển Việt Nam","official_name:en":"Bank for Investment and Development of Vietnam","official_name:vi":"Ngân hàng Đầu tư và Phát triển Việt Nam","operator":"BIDV","operator:wikidata":"Q1003180"}},
{"type":"Feature","geometry":{"type":"Point","coordinates":[105.8329434,21.025983]},"properties":{"addr:country":"VN","addr:district":"Đống Đa","addr:housenumber":"7","addr:street":"Đoàn Thị Điểm","amenity":"atm","brand":"BIDV","brand:wikidata":"Q1003180","name":"BIDV","official_name":"Ngân hàng Đầu tư và Phát triển Việt Nam","official_name:en":"Bank for Investment and Development of Vietnam","official_name:vi":"Ngân hàng Đầu tư và Phát triển Việt Nam","operator":"BIDV","operator:wikidata":"Q1003180"}},
{"type":"Feature","geometry":{"type":"Point","coordinates":[105.8249263,21.0102866]},"properties":{"barrier":"height_restrictor","maxheight":"2.2"}},
{"type":"Feature","geometry":{"type":"Point","coordinates":[105.8277534,21.019185]},"properties":{"addr:city":"Hà Nội","addr:district":"Quận Đống Đa","addr:housenumber":"50","addr:postcode":"100000","addr:province":"Hà Nội","addr:street":"Phố Đông Các","addr:subdistrict":"Phường Ô Chợ Dừa","description":"Loại hình kinh doanh = Thời Trang Nam","name":"Benz BeUnique"}},
{"type":"Feature","geometry":{"type":"Point","coordinates":[105.825524,21.0262123]},"properties":{"noexit":"yes"}},
{"type":"Feature","geometry":{"type":"Point","coordinates":[105.8210885,21.0211455]},"properties":{"barrier":"gate"}},
{"type":"Feature","geometry":{"type":"Point","coordinates":[105.8191372,21.0214004]},"properties":{"barrier":"Road block - Van"}},
{"type":"Feature","geometry":{"type":"Point","coordinates":[105.8277403,21.0162748]},"properties":{"natural":"tree"}},
{"type":"Feature","geometry":{"type":"Point","coordinates":[105.8197759,21.0225419]},"properties":{"addr:housenumber":"516","addr:street":"Đường La Thành"}},
{"type":"Feature","geometry":{"type":"Point","coordinates":[105.8249754,21.0188481]},"properties":{"addr:city":"Tp Hà Nội","addr:country":"VN","addr:district":"Quận Đống Đa","addr:housenumber":"97","addr:street":"Phố Hoàng Cầu","addr:subdistrict":"Phường Ô Chợ Dừa","amenity":"restaurant","capacity":"50","cuisine":"regional","smoking":"yes"}},
{"type":"Feature","geometry":{"type":"Point","coordinates":[105.8192283,21.0145248]},"properties":{"name":"VDC sửa chữa laptop, sửa macbook","name_1":"sửa chữa macbook","name_2":"sửa chữa laptop","name_3":"sửa laptop lấy liền","name_4":"sửa chữa máy tính"}},
{"type":"Feature","geometry":{"type":"Point","coordinates":[105.8329725,21.0268782]},"properties":{"amenity":"pub","name":"Windmill microbrewery pub"}},
{"type":"Feature","geometry":{"type":"Point","coordinates":[105.82232,21.0113796]},"properties":{"addr:city":"Hà Nội","addr:country":"VN","addr:district":"Đống Đa","addr:housenumber":"20A/98","addr:province":"Hà Nội","addr:street":"Thái Hà","addr:subdistrict":"Trung Liệt","name":"iWay Vietnam","office":"yes","phone":"+84 3537 8684","website":"https://www.iwayvietnam.com/"}},
{"type":"Feature","geometry":{"type":"Point","coordinates":[105.8230246,21.0185659]},"properties":{"addr:city":"Hà Nội","addr:country":"VN","addr:district":"Đống Đa","addr:housenumber":"26","addr:street":"Phố Mai Anh Tuấn","addr:subdistrict":"Hoàng Cầu","amenity":"restaurant","cuisine":"regional","name":"Quán Thị Mẹt"}},
{"type":"Feature","geometry":{"type":"Point","coordinates":[105.8171293,21.0154506]},"properties":{"addr:city":"Hà Nội","addr:country":"VN","addr:district":"Đống Đa","addr:housenumber":"324","addr:street":"Phố Thái Hà","name":"Cửa Hàng Thời Trang Dan Gun","shop":"clothes"}},
{"type":"Feature","geometry":{"type":"Point","coordinates":[105.8258523,21.0170234]},"properties":{"club":"sport","name":"Võ Đường Hanoi Kendo"}},
{"type":"Feature","geometry":{"type":"Point","coordinates":[105.8188524,21.0140893]},"properties":{"name":"Cửa Hàng Ap24h","shop":"computer"}},
{"type":"Feature","geometry":{"type":"Point","coordinates":[105.8239379,21.0181837]},"properties":{"addr:city":"Hà Nội","addr:country":"VN","addr:housenumber":"4","addr:province":"10000","addr:street":"Phố Mai Anh Tuấn","name":"FoTo Sỉ Lẻ Abercrombie & Fitch and Hollister","shop":"clothes"}},
{"type":"Feature","geometry":{"type":"Point","coordinates":[105.8183853,21.021001299999999]},"properties":{"addr:city":"Hà Nội","addr:country":"VN","addr:housenumber":"19","addr:street":"Láng Hạ","name":"Oasis Hotel","tourism":"hotel"}},
{"type":"Feature","geometry":{"type":"Point","coordinates":[105.8254405,21.0109329]},"properties":{"addr:city":"Ha Noi","addr:country":"VN","addr:district":"Đống Đa","addr:housenumber":"153","addr:postcode":"+84","addr:province":"Ha Noi","addr:street":"Tây Sơn","addr:subdistrict":"Quang Trung","amenity":"restaurant","cuisine":"japan_food","delivery":"no","description":"Quán Cơm Nhanh Nhật Bản đầu tiên tại Việt Nam","name":"OiShi Ngon","phone":"0917409312","smoking":"no","takeaway":"yes"}},
{"type":"Feature","geometry":{"type":"Point","coordinates":[105.8162648,21.0178003]},"properties":{"amenity":"atm"}},
{"type":"Feature","geometry":{"type":"Point","coordinates":[105.832654,21.0279997]},"properties":{"addr:country":"VN","addr:housenumber":"số 6","addr:street":"Phố Bích Câu","amenity":"cafe","email":"batbaotuanbeo75@icloud.com","internet_access":"wlan","name":"Trà Bát Bảo Tuấn Béo","name:vi":"Trà Bát Bảo Tuấn Béo","opening_hours":"Mo-Su 19:00-23:00","phone":"0912991980"}},
{"type":"Feature","geometry":{"type":"Point","coordinates":[105.8263723,21.0205744]},"properties":{"amenity":"cafe","cuisine":"bubble_tea","name":"Trà Sữa Chachago","name:vi":"chachago"}},
{"type":"Feature","geometry":{"type":"Point","coordinates":[105.830619,21.0237687]},"properties":{"addr:country":"VN","addr:housenumber":"10/49","addr:street":"Ngõ Quan Thổ 1","amenity":"school","name":"Trung Tâm Fablab Hanoi"}},
{"type":"Feature","geometry":{"type":"Point","coordinates":[105.8325665,21.0263451]},"properties":{"amenity":"cafe","name:en":"cafe hoa sua"}},
{"type":"Feature","geometry":{"type":"Point","coordinates":[105.8215824,21.0239754]},"properties":{"amenity":"shelter","internet_access":"wlan"}},
{"type":"Feature","geometry":{"type":"Point","coordinates":[105.8217592,21.0243363]},"properties":{"tourism":"museum"}},
{"type":"Feature","geometry":{"type":"Point","coordinates":[105.8214433,21.0238778]},"properties":{"amenity":"veterinary"}},
{"type":"Feature","geometry":{"type":"Point","coordinates":[105.8215071,21.0240594]},"properties":{"amenity":"shelter","internet_access":"wlan"}},
{"type":"Feature","geometry":{"type":"Point","coordinates":[105.8235739,21.0158958]},"properties":{"amenity":"shelter","internet_access":"wlan"}},
{"type":"Feature","geometry":{"type":"Point","coordinates":[105.8245525,21.0208257]},"properties":{"tourism":"hotel"}},
{"type":"Feature","geometry":{"type":"Point","coordinates":[105.8258183,21.0190747]},"properties":{"amenity":"cafe"}},
{"type":"Feature","geometry":{"type":"Point","coordinates":[105.8254307,21.0129135]},"properties":{"amenity":"cafe","cuisine":"tea","internet_access":"wlan","name":"Cà Phê Bestea House","name:vi":"Bestea House","operator":"Linh"}},
{"type":"Feature","geometry":{"type":"Point","coordinates":[105.8163981,21.0183249]},"properties":{"name":"Eurowindow Office Building","name:vi":"Euro Windows/NK Office","office":"company"}},
{"type":"Feature","geometry":{"type":"Point","coordinates":[105.8282207,21.015882]},"properties":{"addr:housenumber":"ngõ 117","addr:street":"Nguyễn Lương Bằng","name":"In Hồng Chính","shop":"copyshop"}},
{"type":"Feature","geometry":{"type":"Point","coordinates":[105.8173299,21.0192063]},"properties":{"name":"Safe Crop Project"}},
{"type":"Feature","geometry":{"type":"Point","coordinates":[105.8277018,21.0283077]},"properties":{"shop":"electronics"}},
{"type":"Feature","geometry":{"type":"Point","coordinates":[105.827782,21.0290394]},"properties":{"shop":"electronics"}},
{"type":"Feature","geometry":{"type":"Point","coordinates":[105.8239999,21.0208118]},"properties":{"addr:city":"Tp Hà Nội","addr:district":"Quận Đống Đa","addr:housenumber":"55","addr:postcode":"100000","addr:province":"Hà Nội","addr:street":"Ngõ 16 Hoàng Cầu","addr:subdistrict":"Phường Ô Chợ Dừa","name":"Trung tâm Tuệ Quang","office":"educational_institution","opening_hours":"Mo-Sa 08:00-18:00"}},
{"type":"Feature","geometry":{"type":"Point","coordinates":[105.8282866,21.0159439]},"properties":{"bus":"yes","highway":"bus_stop","name":"142-144 Nguyễn Lương Bằng","public_transport":"platform"}},
{"type":"Feature","geometry":{"type":"Point","coordinates":[105.8177616,21.019306]},"properties":{"addr:housenumber":"Phuong Nam","addr:postcode":"+842435373535","addr:street":"Láng Hạ","email":"info@phuongnamtravel.com.vn","name":"Du Lịch Phương Nam","opening_hours":"Mo-Sa 08:00-12:00,13:00-17:00","phone":"+84935373535","shop":"travel_agency","website":"http://www.phuongnamtravel.com.vn"}},
{"type":"Feature","geometry":{"type":"Point","coordinates":[105.8256523,21.0156993]},"properties":{"addr:housenumber":"24/19","addr:postcode":"+844","addr:street":"Ngõ 19 Trần Quang Diệu","amenity":"cafe","email":"ohdeartravel@gmail.com","internet_access":"wlan","name":"Phòng Trà Phố Nghèo","name:en":"Phố Nghèo Tea Club","opening_hours":"Mo-Su 07:00-23:00","phone":"0084903227984","website":"https://ohdeartravel.com/"}},
{"type":"Feature","geometry":{"type":"Point","coordinates":[105.8256038,21.01576]},"properties":{"addr:housenumber":"24/19","addr:postcode":"+844","addr:street":"Ngõ 19 Trần Quang Diệu","email":"ohdeartravel@gmail.com","name:en":"Ohdear Travel Vietnam","office":"company","opening_hours":"Sa 09:00-12:00; Mo-Fr 09:00-18:00; Su 09:00-18:00","phone":"0903227984","website":"http://www.ohdeartravelvietnam.com"}},
{"type":"Feature","geometry":{"type":"Point","coordinates":[105.8228421,21.0134122]},"properties":{"addr:city":"Hà Nội","addr:district":"Đống Đa","addr:housenumber":"14","addr:street":"Đặng Tiến Đông","addr:subdistrict":"Trung Liệt","leisure":"swimming_pool","name":"Bể Bơi Bốn Mùa","source":"grab_hanoi_2018_t2"}},
{"type":"Feature","geometry":{"type":"Point","coordinates":[105.82478330000001,21.0118709]},"properties":{"historic":"monument","name":"Miếu Trung Liệt","source":"grab_hanoi_2018_t2"}},
{"type":"Feature","geometry":{"type":"Point","coordinates":[105.8264037,21.017303]},"properties":{"name":"Khách Sạn Ngọc Lan","tourism":"hotel"}},
{"type":"Feature","geometry":{"type":"Point","coordinates":[105.82398,21.0127906]},"properties":{"artwork_type":"statue","name":"Tượng đài Quang Trung","source":"grab_hanoi_2018_t2","subject:wikidata":"Q379775","subject:wikipedia":"vi:Quang Trung","tourism":"artwork"}},
{"type":"Feature","geometry":{"type":"Point","coordinates":[105.8270468,21.0171384]},"properties":{"addr:city":"Hà Nội","addr:district":"Đống Đa","addr:housenumber":"22","addr:province":"Hà Nội","addr:street":"Ngách 49 Ngõ 64 Nguyễn Lương Bằng;Ngõ 64 Nguyễn Lương Bằng","name":"Công ty Vietmap Hà Nội;Công ty Bảo Huy","source":"grab_hanoi_2018_t2"}},
{"type":"Feature","geometry":{"type":"Point","coordinates":[105.823954,21.0106075]},"properties":{"addr:city":"Hà Nội","addr:district":"Đống Đa","addr:housenumber":"Nhà A2 TT Thảm May ngõ 155","addr:street":"Đặng Tiến Đông","addr:subdistrict":"Trung Liệt","name":"Shop Áo Phông Trắng Trơn Authentic","name:vi":"#WhiteTshirt - Shop áo phông trắng trơn Authentic","opening_hours":"Sa 09:00-17:00","payment:cash":"yes","shop":"clothes","source":"grab_hanoi_2018_t2"}},
{"type":"Feature","geometry":{"type":"Point","coordinates":[105.8271201,21.0171332]},"properties":{"amenity":"cafe","name":"Cà Phê Moonlight"}},
{"type":"Feature","geometry":{"type":"Point","coordinates":[105.8270102,21.0170546]},"properties":{"amenity":"marketplace","name":"Chợ Sáng Trần Quang Diệu","source":"Grab_Hanoi_2018_T2"}},
{"type":"Feature","geometry":{"type":"Point","coordinates":[105.8297634,21.0177733]},"properties":{"crossing":"uncontrolled","highway":"crossing"}},
{"type":"Feature","geometry":{"type":"Point","coordinates":[105.8270196,21.0171453]},"properties":{"name":"Công Ty Huy Việt","office":"yes","source":"grab_hanoi_2018_t4"}},
{"type":"Feature","geometry":{"type":"Point","coordinates":[105.8270382,21.0171341]},"properties":{"name":"Vietmap Travel Hà Nội","office":"yes","source":"grab_hanoi_2018_t4"}},
{"type":"Feature","geometry":{"type":"Point","coordinates":[105.8209471,21.0242775]},"properties":{"addr:city":"Hà Nội","addr:district":"Đống Đa","addr:housenumber":"257","addr:postcode":"100000","addr:province":"Hanoi","addr:street":"Giảng Võ","addr:subdistrict":"Chợ Dừa","amenity":"restaurant","name":"Nhà Hàng Cơm Niêu Kombo","opening_hours":"24/7 08:30-22:30"}},
{"type":"Feature","geometry":{"type":"Point","coordinates":[105.8199492,21.0239192]},"properties":{"addr:city":"Hà Nội","addr:district":"Ba Đình","addr:housenumber":"174","addr:postcode":"100000","addr:province":"Hanoi","addr:street":"Ngọc Khánh","addr:subdistrict":"Giảng Võ","amenity":"restaurant","name":"T+ Beer Club","opening_hours":"24/7 09:00-23:30"}},
{"type":"Feature","geometry":{"type":"Point","coordinates":[105.8205593,21.0237006]},"properties":{"addr:city":"Hà Nội","addr:district":"Đống Đa","addr:housenumber":"3/325","addr:postcode":"100000","addr:province":"Hanoi","addr:street":"Phố Giảng Võ","addr:subdistrict":"Chợ Dừa","name":"Khách Sạn Blue 29","tourism":"hotel"}},
{"type":"Feature","geometry":{"type":"Point","coordinates":[105.8206671,21.0239911]},"properties":{"addr:city":"Hà Nội","addr:district":"Đống Đa","addr:housenumber":"299","addr:postcode":"100000","addr:province":"Hanoi","addr:street":"Giảng Võ","addr:subdistrict":"Chợ Dừa","amenity":"restaurant","name":"Nhà Hàng Bít Tết Ngon","opening_hours":"24/7 17:30"}},
{"type":"Feature","geometry":{"type":"Point","coordinates":[105.8172942,21.0195769]},"properties":{"addr:city":"Hà Nội","addr:district":"Ba Đình","addr:housenumber":"35","addr:postcode":"100000","addr:province":"Hanoi","addr:street":"Láng Hạ","addr:subdistrict":"Chợ Dừa","landuse":"residential","name":"Chung Cư Đường Sắt","residential":"apartments","source":"grab_hanoi_2018_t1"}},
{"type":"Feature","geometry":{"type":"Point","coordinates":[105.8228227,21.0256284]},"properties":{"addr:housenumber":"187","addr:street":"Giảng Võ","name":"Nhà sách Trí Tuệ","phone":"02438515567","shop":"books","source":"grab_hanoi_2018_t1","website":"www.nhasachtritue.com"}},
{"type":"Feature","geometry":{"type":"Point","coordinates":[105.8174783,21.0197554]},"properties":{"addr:city":"Hà Nội","addr:district":"Ba Đình","addr:housenumber":"31A","addr:postcode":"100000","addr:province":"Hanoi","addr:street":"Láng Hạ","addr:subdistrict":"Chợ Dừa","name":"Siêu thị Thuốc Việt","shop":"chemist"}},
{"type":"Feature","geometry":{"type":"Point","coordinates":[105.8170605,21.0198815]},"properties":{"addr:city":"Hà Nội","addr:district":"Ba Đình","addr:housenumber":"110 H1","addr:postcode":"100000","addr:province":"Hanoi","addr:street":"Láng Hạ","addr:subdistrict":"Chợ Dừa","amenity":"restaurant","name":"Nhà Hàng Hàng Bánh Poeme","opening_hours":"24/7"}},
{"type":"Feature","geometry":{"type":"Point","coordinates":[105.822998,21.013239]},"properties":{"addr:housenumber":"12","addr:street":"Đặng Tiến Đông","name":"Siêu thị Minh Hoa","shop":"supermarket","source":"grab_hanoi_2018_t2"}},
{"type":"Feature","geometry":{"type":"Point","coordinates":[105.8190878,21.013861]},"properties":{"name":"FPT Shop","shop":"mobile_phone","source":"grab_hanoi_2018_t3"}},
{"type":"Feature","geometry":{"type":"Point","coordinates":[105.8280594,21.0271738]},"properties":{"name":"Cửa Hàng Bánh Mì Bami King","shop":"bakery"}},
{"type":"Feature","geometry":{"type":"Point","coordinates":[105.8328263,21.0281681]},"properties":{"addr:city":"Hà Nội","addr:district":"Đống Đa","addr:housenumber":"11A","addr:postcode":"100000","addr:street":"Phố Cát Linh","addr:subdistrict":"Cát Linh","amenity":"bank","operator":"Vietcombank"}},
{"type":"Feature","geometry":{"type":"Point","coordinates":[105.8327341,21.0267699]},"properties":{"addr:city":"Hà Nội","addr:district":"Đống Đa","addr:housenumber":"13","addr:postcode":"100000","addr:street":"Phố Cát Linh","addr:subdistrict":"Cát Linh","amenity":"bank","atm":"yes","name":"Sacombank"}},
{"type":"Feature","geometry":{"type":"Point","coordinates":[105.8197796,21.0226243]},"properties":{"addr:housenumber":"1","addr:street":"Láng Hạ","amenity":"restaurant","name":"Nhà Hàng Bia Lan Chín"}},
{"type":"Feature","geometry":{"type":"Point","coordinates":[105.8328793,21.0281849]},"properties":{"name":"Siêu Thị Hapro","shop":"supermarket"}},
{"type":"Feature","geometry":{"type":"Point","coordinates":[105.8235994,21.0161367]},"properties":{"addr:street":"Võ Văn Dũng","name":"Vinmart","shop":"supermarket"}},
{"type":"Feature","geometry":{"type":"Point","coordinates":[105.8197131,21.013353]},"properties":{"addr:street":"Thái Hà","name":"Siêu thị Minh Hoa Thái Hà","shop":"supermarket"}},
{"type":"Feature","geometry":{"type":"Point","coordinates":[105.8258285,21.0176252]},"properties":{"addr:street":"Phố Trần Quang Diệu","name":"Siêu thị Hoàng Cầu","shop":"supermarket"}},
{"type":"Feature","geometry":{"type":"Point","coordinates":[105.8222435,21.0135015]},"properties":{"addr:full":"Số 169 Đặng Tiến Đông, phường Trung Liệt, quận Đống Đa, Hà Nội","addr:housenumber":"169","addr:street":"Đặng Tiến Đông","alt_name":"VinMart+ 169 Đặng Tiến Đông","name":"VinMart+","phone":"901722038","shop":"convenience","website":"http://www.vinmartplus.vn"}},
{"type":"Feature","geometry":{"type":"Point","coordinates":[105.8191536,21.0165361]},"properties":{"addr:full":"Số 66 Đặng Tiến Đông, phường Trung Liệt, quận Đống Đa, Hà Nội","addr:housenumber":"66","addr:street":"Phố Đặng Tiến Đông","alt_name":"VinMart+ 66 Đặng Tiến Đông","brand":"WinMart+","brand:wikidata":"Q113236478","name":"WinMart+","phone":"901722907","shop":"convenience","website":"http://www.vinmartplus.vn"}},
{"type":"Feature","geometry":{"type":"Point","coordinates":[105.8284662,21.0155646]},"properties":{"addr:full":"150 Nguyễn Lương Bằng, phường Nam Đồng, quận Đống Đa, Hà Nội","addr:housenumber":"150","addr:street":"Nguyễn Lương Bằng","alt_name":"VinMart+ 150 Nguyễn Lương Bằng","name":"VinMart+","phone":"901723854","shop":"convenience","website":"http://www.vinmartplus.vn"}},
{"type":"Feature","geometry":{"type":"Point","coordinates":[105.8243463,21.0156247]},"properties":{"addr:full":"Số 16 Võ Văn Dũng, Phường Ô Chợ Dừa, Quận Đống Đa, Hà Nội","addr:housenumber":"16","addr:street":"Phố Võ Văn Dũng","alt_name":"VinMart+ 16 Võ Văn Dũng","name":"VinMart+","phone":"62922827","shop":"convenience","website":"http://www.vinmartplus.vn"}},
{"type":"Feature","geometry":{"type":"Point","coordinates":[105.8214281,21.0197309]},"properties":{"addr:full":"Số 80 Nguyễn Phúc Lai, phường Ô Chợ Dừa, quận Đống Đa, Hà Nội","addr:housenumber":"80","addr:street":"Nguyễn Phúc Lai","alt_name":"VinMart+ 80 Nguyễn Phúc Lai","brand":"WinMart+","brand:wikidata":"Q113236478","name":"WinMart+","phone":"901702958","shop":"convenience","website":"http://www.vinmartplus.vn"}},
{"type":"Feature","geometry":{"type":"Point","coordinates":[105.8293944,21.0293758]},"properties":{"access":"private","barrier":"lift_gate"}},
{"type":"Feature","geometry":{"type":"Point","coordinates":[105.8275813,21.0209245]},"properties":{"access":"private","barrier":"lift_gate"}},
{"type":"Feature","geometry":{"type":"Point","coordinates":[105.8252594,21.0207989]},"properties":{"barrier":"gate"}},
{"type":"Feature","geometry":{"type":"Point","coordinates":[105.8303516,21.0189941]},"properties":{"crossing":"traffic_signals","highway":"traffic_signals","traffic_signals":"traffic_lights","traffic_signals:direction":"forward"}},
{"type":"Feature","geometry":{"type":"Point","coordinates":[105.8295855,21.0188185]},"properties":{"crossing":"traffic_signals","highway":"traffic_signals","traffic_signals":"traffic_lights"}},
{"type":"Feature","geometry":{"type":"Point","coordinates":[105.8295897,21.0187478]},"properties":{"crossing":"marked","crossing:markings":"yes","highway":"crossing"}},
{"type":"Feature","geometry":{"type":"Point","coordinates":[105.8223423,21.0148205]},"properties":{"noexit":"yes"}},
{"type":"Feature","geometry":{"type":"Point","coordinates":[105.8266458,21.0152117]},"properties":{"noexit":"yes"}},
{"type":"Feature","geometry":{"type":"Point","coordinates":[105.8242705,21.0119258]},"properties":{"barrier":"gate"}},
{"type":"Feature","geometry":{"type":"Point","coordinates":[105.8274062,21.0273313]},"properties":{"railway":"switch"}},
{"type":"Feature","geometry":{"type":"Point","coordinates":[105.8272815,21.0290934]},"properties":{"railway":"buffer_stop"}},
{"type":"Feature","geometry":{"type":"Point","coordinates":[105.8222928,21.0196036]},"properties":{"addr:housenumber":"1","addr:street":"Phố Hoàng Cầu","name":"vinmart","shop":"department_store"}},
{"type":"Feature","geometry":{"type":"Point","coordinates":[105.8274651,21.0268195]},"properties":{"railway":"switch"}},
{"type":"Feature","geometry":{"type":"Point","coordinates":[105.8273419,21.0273248]},"properties":{"railway":"switch"}},
{"type":"Feature","geometry":{"type":"Point","coordinates":[105.8274004,21.0268131]},"properties":{"railway":"switch"}},
{"type":"Feature","geometry":{"type":"Point","coordinates":[105.8274034,21.0270748]},"properties":{"railway":"railway_crossing"}},
{"type":"Feature","geometry":{"type":"Point","coordinates":[105.8250988,21.0274154]},"properties":{"tourism":"apartment"}},
{"type":"Feature","geometry":{"type":"Point","coordinates":[105.8212533,21.0168259]},"properties":{"addr:city":"Hà Nội","addr:district":"Đống Đa","addr:housenumber":"36","addr:postcode":"10000","addr:province":"Hà Nội","addr:street":"Phố Hoàng Cầu","addr:subdistrict":"Ô Chợ Dừa","amenity":"restaurant","capacity":"350","cuisine":"Hải_Sản;Đồ_ăn_châu_Âu;cafe;Phở","delivery":"yes","name":"Nhà hàng MAISON","opening_hours":"24/7","outdoor_seating":"yes","phone":"0926533456","smoking":"isolated","takeaway":"no"}},
{"type":"Feature","geometry":{"type":"Point","coordinates":[105.8250572,21.016337]},"properties":{"addr:housenumber":"15","addr:postcode":"100100","addr:street":"Phố Trần Quang Diệu","amenity":"restaurant","cuisine":"vietnamese","email":"chaytuegiac@gmail.com","internet_access":"wlan","name":"Nhà Hàng Chay Tuệ Giác","name:en":"TUE GIAC Vegan Restaurant","opening_hours":"Mo-Su 08:30-21:30"}},
{"type":"Feature","geometry":{"type":"Point","coordinates":[105.8241194,21.0158306]},"properties":{"addr:housenumber":"27","addr:street":"Phố Võ Văn Dũng","internet_access":"wlan","name":"TTG Shop","opening_hours":"Mo-Su 08:00-21:00","phone":"0968239497","shop":"computer","website":"https://ttgshop.vn/"}},
{"type":"Feature","geometry":{"type":"Point","coordinates":[105.8284746,21.0189669]},"properties":{"amenity":"restaurant","cuisine":"vietnamese","internet_access":"wlan","name":"Cơm Nấm Việt Hà Thành"}},
{"type":"Feature","geometry":{"type":"Point","coordinates":[105.8276931,21.0297106]},"properties":{"amenity":"restaurant","cuisine":"vietnamese","name":"Nhà Hàng CIAO","name:vi":"CIAO Giang Vo"}},
{"type":"Feature","geometry":{"type":"Point","coordinates":[105.824681,21.0193684]},"properties":{"amenity":"fast_food","brand":"Lotteria","brand:wikidata":"Q249525","cuisine":"burger","name":"Lotteria","takeaway":"yes"}},
{"type":"Feature","geometry":{"type":"Point","coordinates":[105.8286661,21.0188856]},"properties":{"amenity":"restaurant","cuisine":"chinese","name":"Nhà Hàng Dim Sum Đại Hùng"}},
{"type":"Feature","geometry":{"type":"Point","coordinates":[105.8261291,21.0220778]},"properties":{"addr:street":"Phố Hào Nam","brand":"Circle K","brand:wikidata":"Q3268010","name":"Circle K","shop":"convenience"}},
{"type":"Feature","geometry":{"type":"Point","coordinates":[105.8253269,21.0201444]},"properties":{"name":"La Thành","name:en":"La Thanh","public_transport":"stop_position","railway":"stop","ref":"C02","subway":"yes"}},
{"type":"Feature","geometry":{"type":"Point","coordinates":[105.8194321,21.0145374]},"properties":{"name":"Thái Hà","name:en":"Thai Ha","public_transport":"stop_position","railway":"stop","ref":"C03","subway":"yes"}},
{"type":"Feature","geometry":{"type":"Point","coordinates":[105.8228304,21.0148139]},"properties":{"name":"Pinky House","tourism":"apartment"}},
{"type":"Feature","geometry":{"type":"Point","coordinates":[105.8251792,21.0193167]},"properties":{"amenity":"restaurant","cuisine":"french","name":"Le Monde Steak"}},
{"type":"Feature","geometry":{"type":"Point","coordinates":[105.8233229,21.0148346]},"properties":{"amenity":"restaurant","cuisine":"coffee_shop","internet_access":"wlan","name":"Nhà Hàng Cà Phê Hub"}},
{"type":"Feature","geometry":{"type":"Point","coordinates":[105.8213505,21.0121897]},"properties":{"amenity":"restaurant","cuisine":"kebab","name":"Cửa Hàng Doner Kebab"}},
{"type":"Feature","geometry":{"type":"Point","coordinates":[105.8250224,21.0213924]},"properties":{"name":"Ô Chợ Dừa","place":"quarter"}},
{"type":"Feature","geometry":{"type":"Point","coordinates":[105.8325395,21.0267696]},"properties":{"name":"Quốc Tử Giám","place":"quarter"}},
{"type":"Feature","geometry":{"type":"Point","coordinates":[105.8228777,21.016165]},"properties":{"amenity":"cafe","cuisine":"coffee_shop","internet_access":"wlan","name":"Cà Phê Aha"}},
{"type":"Feature","geometry":{"type":"Point","coordinates":[105.8239402,21.0207962]},"properties":{"addr:city":"Tp Hà Nội","addr:district":"Quận Đống Đa","addr:housenumber":"55","addr:postcode":"100000","addr:province":"Hà Nội","addr:street":"Ngõ 16 Hoàng Cầu","addr:subdistrict":"Phường Ô Chợ Dừa","name":"Trung tâm Tuệ Quang","office":"educational_institution","opening_hours":"Mo-Sa 08:00-18:00"}},
{"type":"Feature","geometry":{"type":"Point","coordinates":[105.8184012,21.0215254]},"properties":{"crossing":"traffic_signals","highway":"traffic_signals"}},
{"type":"Feature","geometry":{"type":"Point","coordinates":[105.8185121,21.021461]},"properties":{"crossing":"traffic_signals","highway":"crossing"}},
{"type":"Feature","geometry":{"type":"Point","coordinates":[105.8183958,21.0213033]},"properties":{"crossing":"traffic_signals","highway":"traffic_signals"}},
{"type":"Feature","geometry":{"type":"Point","coordinates":[105.818289,21.0213668]},"properties":{"crossing":"traffic_signals","highway":"crossing"}},
{"type":"Feature","geometry":{"type":"Point","coordinates":[105.8175337,21.0201095]},"properties":{"crossing":"marked","highway":"crossing"}},
{"type":"Feature","geometry":{"type":"Point","coordinates":[105.8174241,21.0201772]},"properties":{"crossing":"marked","highway":"crossing"}},
{"type":"Feature","geometry":{"type":"Point","coordinates":[105.8166525,21.0191232]},"properties":{"crossing":"marked","highway":"crossing"}},
{"type":"Feature","geometry":{"type":"Point","coordinates":[105.816761,21.0190552]},"properties":{"crossing":"marked","highway":"crossing"}},
{"type":"Feature","geometry":{"type":"Point","coordinates":[105.8163254,21.0182818]},"properties":{"addr:housenumber":"81","addr:street":"Láng Hạ"}},
{"type":"Feature","geometry":{"type":"Point","coordinates":[105.8160397,21.0178174]},"properties":{"addr:housenumber":"85","addr:street":"Láng Hạ"}},
{"type":"Feature","geometry":{"type":"Point","coordinates":[105.8197018,21.0233065]},"properties":{"crossing":"traffic_signals","highway":"crossing"}},
{"type":"Feature","geometry":{"type":"Point","coordinates":[105.8197864,21.0232627]},"properties":{"crossing":"traffic_signals","highway":"traffic_signals"}},
{"type":"Feature","geometry":{"type":"Point","coordinates":[105.8198696,21.0232196]},"properties":{"crossing":"uncontrolled","crossing:markings":"zebra","highway":"crossing"}},
{"type":"Feature","geometry":{"type":"Point","coordinates":[105.8199568,21.0234922]},"properties":{"crossing":"traffic_signals","highway":"crossing"}},
{"type":"Feature","geometry":{"type":"Point","coordinates":[105.8197842,21.0235649]},"properties":{"crossing":"traffic_signals","highway":"traffic_signals"}},
{"type":"Feature","geometry":{"type":"Point","coordinates":[105.8200516,21.0233561]},"properties":{"crossing":"traffic_signals","highway":"traffic_signals","traffic_signals:direction":"backward"}},
{"type":"Feature","geometry":{"type":"Point","coordinates":[105.8278334,21.0293574]},"properties":{"addr:housenumber":"47","addr:street":"Phố Cát Linh"}},
{"type":"Feature","geometry":{"type":"Point","coordinates":[105.8275695,21.0293165]},"properties":{"crossing":"uncontrolled","highway":"crossing"}},
{"type":"Feature","geometry":{"type":"Point","coordinates":[105.8274779,21.0293206]},"properties":{"crossing":"traffic_signals","highway":"traffic_signals","traffic_signals":"traffic_lights","traffic_signals:direction":"forward"}},
{"type":"Feature","geometry":{"type":"Point","coordinates":[105.8276155,21.0295417]},"properties":{"crossing":"traffic_signals","highway":"traffic_signals","traffic_signals":"traffic_lights","traffic_signals:direction":"forward"}},
{"type":"Feature","geometry":{"type":"Point","coordinates":[105.8275921,21.0294484]},"properties":{"crossing":"traffic_signals","highway":"crossing"}},
{"type":"Feature","geometry":{"type":"Point","coordinates":[105.8234695,21.0222527]},"properties":{"crossing":"uncontrolled","highway":"crossing"}},
{"type":"Feature","geometry":{"type":"Point","coordinates":[105.822118,21.0227764]},"properties":{"crossing":"uncontrolled","highway":"crossing"}},
{"type":"Feature","geometry":{"type":"Point","coordinates":[105.8223342,21.0226433]},"properties":{"addr:housenumber":"307","addr:street":"Đường La Thành"}},
{"type":"Feature","geometry":{"type":"Point","coordinates":[105.8220056,21.0227516]},"properties":{"addr:housenumber":"327","addr:street":"Đường La Thành"}},
{"type":"Feature","geometry":{"type":"Point","coordinates":[105.821834,21.022796]},"properties":{"addr:housenumber":"333","addr:street":"Đường La Thành"}},
{"type":"Feature","geometry":{"type":"Point","coordinates":[105.8215537,21.0228974]},"properties":{"addr:housenumber":"347","addr:street":"Đường La Thành"}},
{"type":"Feature","geometry":{"type":"Point","coordinates":[105.8212848,21.0229894]},"properties":{"addr:housenumber":"361","addr:street":"Đường La Thành"}},
{"type":"Feature","geometry":{"type":"Point","coordinates":[105.8210253,21.0230771]},"properties":{"addr:housenumber":"371","addr:street":"Đường La Thành"}},
{"type":"Feature","geometry":{"type":"Point","coordinates":[105.8172233,21.0192789]},"properties":{"addr:housenumber":"57","addr:street":"Láng Hạ"}},
{"type":"Feature","geometry":{"type":"Point","coordinates":[105.8162617,21.0181548]},"properties":{"addr:housenumber":"83","addr:street":"Láng Hạ"}},
{"type":"Feature","geometry":{"type":"Point","coordinates":[105.8163703,21.0160266]},"properties":{"addr:housenumber":"356","addr:street":"Phố Thái Hà"}},
{"type":"Feature","geometry":{"type":"Point","coordinates":[105.8173212,21.0153668]},"properties":{"addr:housenumber":"312","addr:street":"Phố Thái Hà"}},
{"type":"Feature","geometry":{"type":"Point","coordinates":[105.8175847,21.0151822]},"properties":{"addr:housenumber":"294","addr:street":"Phố Thái Hà"}},
{"type":"Feature","geometry":{"type":"Point","coordinates":[105.8251485,21.0214334]},"properties":{"addr:housenumber":"191","addr:street":"Đường La Thành"}},
{"type":"Feature","geometry":{"type":"Point","coordinates":[105.8245745,21.0217338]},"properties":{"addr:housenumber":"211","addr:street":"Đường La Thành"}},
{"type":"Feature","geometry":{"type":"Point","coordinates":[105.8244149,21.0218133]},"properties":{"addr:housenumber":"219","addr:street":"Đường La Thành"}},
{"type":"Feature","geometry":{"type":"Point","coordinates":[105.8242728,21.0218797]},"properties":{"addr:housenumber":"221","addr:street":"Đường La Thành"}},
{"type":"Feature","geometry":{"type":"Point","coordinates":[105.823857,21.0220424]},"properties":{"addr:housenumber":"241","addr:street":"Đường La Thành"}},
{"type":"Feature","geometry":{"type":"Point","coordinates":[105.8234614,21.0222271]},"properties":{"addr:housenumber":"255","addr:street":"Đường La Thành"}},
{"type":"Feature","geometry":{"type":"Point","coordinates":[105.8228371,21.0224799]},"properties":{"addr:housenumber":"279","addr:street":"Đường La Thành"}},
{"type":"Feature","geometry":{"type":"Point","coordinates":[105.825339,21.0215154]},"properties":{"addr:housenumber":"256","addr:street":"Đường La Thành"}},
{"type":"Feature","geometry":{"type":"Point","coordinates":[105.8247717,21.0217795]},"properties":{"addr:housenumber":"294","addr:street":"Đường La Thành"}},
{"type":"Feature","geometry":{"type":"Point","coordinates":[105.8243425,21.0219955]},"properties":{"addr:housenumber":"314","addr:street":"Đường La Thành"}},
{"type":"Feature","geometry":{"type":"Point","coordinates":[105.8241829,21.0220562]},"properties":{"addr:housenumber":"318","addr:street":"Đường La Thành"}},
{"type":"Feature","geometry":{"type":"Point","coordinates":[105.8239878,21.0221682]},"properties":{"addr:housenumber":"324","addr:street":"Đường La Thành"}},
{"type":"Feature","geometry":{"type":"Point","coordinates":[105.8236257,21.0223134]},"properties":{"addr:housenumber":"348","addr:street":"Đường La Thành"}},
{"type":"Feature","geometry":{"type":"Point","coordinates":[105.8233776,21.0224205]},"properties":{"addr:housenumber":"362","addr:street":"Đường La Thành"}},
{"type":"Feature","geometry":{"type":"Point","coordinates":[105.8228143,21.022637]},"properties":{"addr:housenumber":"402","addr:street":"Đường La Thành"}},
{"type":"Feature","geometry":{"type":"Point","coordinates":[105.8217213,21.0230189]},"properties":{"addr:housenumber":"436","addr:street":"Đường La Thành"}},
{"type":"Feature","geometry":{"type":"Point","coordinates":[105.8216637,21.023047]},"properties":{"addr:housenumber":"440","addr:street":"Đường La Thành"}},
{"type":"Feature","geometry":{"type":"Point","coordinates":[105.8214109,21.0231296]},"properties":{"addr:housenumber":"456","addr:street":"Đường La Thành"}},
{"type":"Feature","geometry":{"type":"Point","coordinates":[105.8212513,21.0231703]},"properties":{"addr:housenumber":"466","addr:street":"Đường La Thành"}},
{"type":"Feature","geometry":{"type":"Point","coordinates":[105.8210696,21.0232041]},"properties":{"addr:housenumber":"470","addr:street":"Đường La Thành"}},
{"type":"Feature","geometry":{"type":"Point","coordinates":[105.8171757,21.0200132]},"properties":{"addr:housenumber":"104","addr:street":"Láng Hạ"}},
{"type":"Feature","geometry":{"type":"Point","coordinates":[105.8154503,21.0173694]},"properties":{"barrier":"height_restrictor","maxheight":"3.3"}},
{"type":"Feature","geometry":{"type":"Point","coordinates":[105.8157117,21.017856599999999]},"properties":{"highway":"traffic_signals","traffic_signals":"bus_priority","traffic_signals:direction":"forward"}},
{"type":"Feature","geometry":{"type":"Point","coordinates":[105.8243881,21.0096863]},"properties":{"crossing":"uncontrolled","crossing:markings":"zebra","highway":"crossing"}},
{"type":"Feature","geometry":{"type":"Point","coordinates":[105.8249192,21.0091898]},"properties":{"addr:housenumber":"144","addr:street":"Phố Chùa Bộc"}},
{"type":"Feature","geometry":{"type":"Point","coordinates":[105.8258244,21.0212695]},"properties":{"crossing":"traffic_signals","highway":"traffic_signals"}},
{"type":"Feature","geometry":{"type":"Point","coordinates":[105.8259971,21.0211915]},"properties":{"crossing":"traffic_signals","highway":"crossing"}},
{"type":"Feature","geometry":{"type":"Point","coordinates":[105.8259137,21.0210284]},"properties":{"crossing":"traffic_signals","highway":"traffic_signals"}},
{"type":"Feature","geometry":{"type":"Point","coordinates":[105.8257419,21.0211036]},"properties":{"crossing":"traffic_signals","highway":"crossing"}},
{"type":"Feature","geometry":{"type":"Point","coordinates":[105.8261102,21.0210796]},"properties":{"crossing":"traffic_signals","highway":"traffic_signals"}},
{"type":"Feature","geometry":{"type":"Point","coordinates":[105.8260892,21.021037]},"properties":{"crossing":"traffic_signals","highway":"crossing"}},
{"type":"Feature","geometry":{"type":"Point","coordinates":[105.8257165,21.021222]},"properties":{"crossing":"traffic_signals","highway":"traffic_signals"}},
{"type":"Feature","geometry":{"type":"Point","coordinates":[105.825737,21.0212587]},"properties":{"crossing":"traffic_signals","highway":"crossing"}},
{"type":"Feature","geometry":{"type":"Point","coordinates":[105.8255809,21.0204454]},"properties":{"crossing":"traffic_signals","highway":"traffic_signals","traffic_signals":"traffic_lights","traffic_signals:direction":"forward"}},
{"type":"Feature","geometry":{"type":"Point","coordinates":[105.8259239,21.0207421]},"properties":{"crossing":"traffic_signals","highway":"traffic_signals","traffic_signals":"traffic_lights","traffic_signals:direction":"forward"}},
{"type":"Feature","geometry":{"type":"Point","coordinates":[105.8258306,21.0205868]},"properties":{"crossing":"traffic_signals","highway":"crossing"}},
{"type":"Feature","geometry":{"type":"Point","coordinates":[105.8255908,21.0208137]},"properties":{"highway":"traffic_signals","traffic_signals":"traffic_lights","traffic_signals:direction":"forward"}},
{"type":"Feature","geometry":{"type":"Point","coordinates":[105.8224398,21.0200589]},"properties":{"crossing":"uncontrolled","highway":"crossing"}},
{"type":"Feature","geometry":{"type":"Point","coordinates":[105.8229104,21.0199763]},"properties":{"crossing":"uncontrolled","highway":"crossing"}},
{"type":"Feature","geometry":{"type":"Point","coordinates":[105.8212827,21.0195438]},"properties":{"crossing":"uncontrolled","highway":"crossing"}},
{"type":"Feature","geometry":{"type":"Point","coordinates":[105.8228365,21.0201271]},"properties":{"addr:housenumber":"90","addr:street":"Ngõ 34 Hoàng Cầu"}},
{"type":"Feature","geometry":{"type":"Point","coordinates":[105.822933,21.0200895]},"properties":{"addr:housenumber":"88","addr:street":"Ngõ 34 Hoàng Cầu"}},
{"type":"Feature","geometry":{"type":"Point","coordinates":[105.8230323,21.0200626]},"properties":{"addr:housenumber":"86","addr:street":"Ngõ 34 Hoàng Cầu"}},
{"type":"Feature","geometry":{"type":"Point","coordinates":[105.8230852,21.0200689]},"properties":{"addr:housenumber":"84","addr:street":"Ngõ 34 Hoàng Cầu"}},
{"type":"Feature","geometry":{"type":"Point","coordinates":[105.8209334,21.0192107]},"properties":{"addr:housenumber":"102","addr:street":"Phố Mai Anh Tuấn"}},
{"type":"Feature","geometry":{"type":"Point","coordinates":[105.8212278,21.0196138]},"properties":{"addr:housenumber":"104","addr:street":"Phố Nguyễn Phúc Lai"}},
{"type":"Feature","geometry":{"type":"Point","coordinates":[105.8212533,21.0196971]},"properties":{"addr:housenumber":"102","addr:street":"Phố Nguyễn Phúc Lai"}},
{"type":"Feature","geometry":{"type":"Point","coordinates":[105.8212801,21.0197841]},"properties":{"addr:housenumber":"96","addr:street":"Phố Nguyễn Phúc Lai"}},
{"type":"Feature","geometry":{"type":"Point","coordinates":[105.8213156,21.0198761]},"properties":{"addr:housenumber":"90","addr:street":"Phố Nguyễn Phúc Lai"}},
{"type":"Feature","geometry":{"type":"Point","coordinates":[105.8213579,21.0199456]},"properties":{"addr:housenumber":"86","addr:street":"Phố Nguyễn Phúc Lai"}},
{"type":"Feature","geometry":{"type":"Point","coordinates":[105.8215731,21.0201452]},"properties":{"addr:housenumber":"91","addr:street":"Nguyễn Phúc Lai"}},
{"type":"Feature","geometry":{"type":"Point","coordinates":[105.8219936,21.0201753]},"properties":{"addr:housenumber":"110","addr:street":"Ngõ 34 Hoàng Cầu"}},
{"type":"Feature","geometry":{"type":"Point","coordinates":[105.822123,21.020179]},"properties":{"addr:housenumber":"108","addr:street":"Ngõ 34 Hoàng Cầu"}},
{"type":"Feature","geometry":{"type":"Point","coordinates":[105.8224234,21.0201822]},"properties":{"addr:housenumber":"102","addr:street":"Ngõ 34 Hoàng Cầu"}},
{"type":"Feature","geometry":{"type":"Point","coordinates":[105.8192899,21.016429]},"properties":{"addr:housenumber":"244","addr:street":"Phố Đặng Tiến Đông"}},
{"type":"Feature","geometry":{"type":"Point","coordinates":[105.8185516,21.016953]},"properties":{"addr:housenumber":"259","addr:street":"Phố Đặng Tiến Đông"}},
{"type":"Feature","geometry":{"type":"Point","coordinates":[105.8184913,21.0169285]},"properties":{"addr:housenumber":"261","addr:street":"Phố Đặng Tiến Đông"}},
{"type":"Feature","geometry":{"type":"Point","coordinates":[105.8173185,21.0170531]},"properties":{"addr:housenumber":"292","addr:street":"Phố Đặng Tiến Đông"}},
{"type":"Feature","geometry":{"type":"Point","coordinates":[105.8173151,21.0174049]},"properties":{"addr:housenumber":"312","addr:street":"Phố Mai Anh Tuấn"}},
{"type":"Feature","geometry":{"type":"Point","coordinates":[105.817688,21.0178462]},"properties":{"addr:housenumber":"294","addr:street":"Phố Mai Anh Tuấn"}},
{"type":"Feature","geometry":{"type":"Point","coordinates":[105.8178221,21.0179789]},"properties":{"addr:housenumber":"274","addr:street":"Phố Mai Anh Tuấn"}},
{"type":"Feature","geometry":{"type":"Point","coordinates":[105.8181533,21.01833]},"properties":{"addr:housenumber":"244","addr:street":"Phố Mai Anh Tuấn"}},
{"type":"Feature","geometry":{"type":"Point","coordinates":[105.818217,21.0184039]},"properties":{"addr:housenumber":"240","addr:street":"Phố Mai Anh Tuấn"}},
{"type":"Feature","geometry":{"type":"Point","coordinates":[105.8183692,21.018546]},"properties":{"addr:housenumber":"230","addr:street":"Phố Mai Anh Tuấn"}},
{"type":"Feature","geometry":{"type":"Point","coordinates":[105.8185342,21.0186662]},"properties":{"addr:housenumber":"222","addr:street":"Phố Mai Anh Tuấn"}},
{"type":"Feature","geometry":{"type":"Point","coordinates":[105.8188527,21.0188771]},"properties":{"addr:housenumber":"192","addr:street":"Phố Mai Anh Tuấn"}},
{"type":"Feature","geometry":{"type":"Point","coordinates":[105.8192349,21.019073]},"properties":{"addr:housenumber":"176","addr:street":"Phố Mai Anh Tuấn"}},
{"type":"Feature","geometry":{"type":"Point","coordinates":[105.8193959,21.0191237]},"properties":{"addr:housenumber":"174","addr:street":"Phố Mai Anh Tuấn"}},
{"type":"Feature","geometry":{"type":"Point","coordinates":[105.8194421,21.0191387]},"properties":{"addr:housenumber":"172","addr:street":"Phố Mai Anh Tuấn"}},
{"type":"Feature","geometry":{"type":"Point","coordinates":[105.8195554,21.0191738]},"properties":{"addr:housenumber":"162","addr:street":"Phố Mai Anh Tuấn"}},
{"type":"Feature","geometry":{"type":"Point","coordinates":[105.8196587,21.0191919]},"properties":{"addr:housenumber":"158","addr:street":"Phố Mai Anh Tuấn"}},
{"type":"Feature","geometry":{"type":"Point","coordinates":[105.8200242,21.019227]},"properties":{"addr:housenumber":"154","addr:street":"Phố Mai Anh Tuấn"}},
{"type":"Feature","geometry":{"type":"Point","coordinates":[105.8200952,21.0192301]},"properties":{"addr:housenumber":"148","addr:street":"Phố Mai Anh Tuấn"}},
{"type":"Feature","geometry":{"type":"Point","coordinates":[105.820167,21.0192276]},"properties":{"addr:housenumber":"146","addr:street":"Phố Mai Anh Tuấn"}},
{"type":"Feature","geometry":{"type":"Point","coordinates":[105.819813,21.0158096]},"properties":{"addr:city":"Hà Nội","addr:district":"Đống Đa","addr:housenumber":"62","addr:postcode":"10000","addr:province":"Hà Nội","addr:street":"Phố Đặng Tiến Đông","addr:subdistrict":"Trung Liệt","name":"Tùng Anh Hair Salon","opening_hours":"24/7","payment:none":"yes","phone":"0766146789","shop":"hairdresser"}},
{"type":"Feature","geometry":{"type":"Point","coordinates":[105.8212023,21.0193885]},"properties":{"addr:housenumber":"123","addr:street":"Phố Nguyễn Phúc Lai"}},
{"type":"Feature","geometry":{"type":"Point","coordinates":[105.8246798,21.0190236]},"properties":{"crossing":"marked","highway":"crossing"}},
{"type":"Feature","geometry":{"type":"Point","coordinates":[105.8248234,21.0189604]},"properties":{"crossing":"marked","highway":"crossing"}},
{"type":"Feature","geometry":{"type":"Point","coordinates":[105.8230022,21.0164777]},"properties":{"crossing":"traffic_signals","highway":"crossing"}},
{"type":"Feature","geometry":{"type":"Point","coordinates":[105.8230077,21.0163297]},"properties":{"crossing":"traffic_signals","highway":"traffic_signals","traffic_signals":"traffic_lights","traffic_signals:direction":"forward"}},
{"type":"Feature","geometry":{"type":"Point","coordinates":[105.8262811,21.0215968]},"properties":{"addr:housenumber":"20","addr:street":"Phố Hào Nam"}},
{"type":"Feature","geometry":{"type":"Point","coordinates":[105.8262368,21.021486]},"properties":{"addr:housenumber":"12","addr:street":"Phố Hào Nam"}},
{"type":"Feature","geometry":{"type":"Point","coordinates":[105.8247878,21.0186499]},"properties":{"addr:housenumber":"47","addr:street":"Phố Hoàng Cầu"}},
{"type":"Feature","geometry":{"type":"Point","coordinates":[105.8333793,21.027973]},"properties":{"crossing":"marked","highway":"crossing"}},
{"type":"Feature","geometry":{"type":"Point","coordinates":[105.8319375,21.0286386]},"properties":{"crossing":"traffic_signals","highway":"crossing"}},
{"type":"Feature","geometry":{"type":"Point","coordinates":[105.8317137,21.0287216]},"properties":{"crossing":"traffic_signals","highway":"traffic_signals","traffic_signals":"traffic_lights","traffic_signals:direction":"forward"}},
{"type":"Feature","geometry":{"type":"Point","coordinates":[105.8317661,21.0285828]},"properties":{"crossing":"traffic_signals","highway":"traffic_signals","traffic_signals":"traffic_lights","traffic_signals:direction":"forward"}},
{"type":"Feature","geometry":{"type":"Point","coordinates":[105.8294146,21.0277376]},"properties":{"barrier":"gate"}},
{"type":"Feature","geometry":{"type":"Point","coordinates":[105.8274264,21.0260625]},"properties":{"crossing":"marked","crossing:markings":"yes","highway":"crossing"}},
{"type":"Feature","geometry":{"type":"Point","coordinates":[105.8275844,21.0260273]},"properties":{"crossing":"marked","highway":"crossing"}},
{"type":"Feature","geometry":{"type":"Point","coordinates":[105.8269543,21.0242482]},"properties":{"crossing":"marked","highway":"crossing"}},
{"type":"Feature","geometry":{"type":"Point","coordinates":[105.8270773,21.0242207]},"properties":{"crossing":"marked","highway":"crossing"}},
{"type":"Feature","geometry":{"type":"Point","coordinates":[105.8264242,21.0221438]},"properties":{"crossing":"marked","highway":"crossing"}},
{"type":"Feature","geometry":{"type":"Point","coordinates":[105.8262898,21.0221979]},"properties":{"crossing":"marked","highway":"crossing"}},
{"type":"Feature","geometry":{"type":"Point","coordinates":[105.8267558,21.0230519]},"properties":{"crossing":"marked","highway":"crossing"}},
{"type":"Feature","geometry":{"type":"Point","coordinates":[105.8266277,21.0230828]},"properties":{"crossing":"marked","highway":"crossing"}},
{"type":"Feature","geometry":{"type":"Point","coordinates":[105.8292838,21.018164]},"properties":{"crossing":"uncontrolled","highway":"crossing"}},
{"type":"Feature","geometry":{"type":"Point","coordinates":[105.8294361,21.0182978]},"properties":{"crossing":"traffic_signals","highway":"traffic_signals","traffic_signals":"traffic_lights","traffic_signals:direction":"forward"}},
{"type":"Feature","geometry":{"type":"Point","coordinates":[105.8295335,21.018561299999999]},"properties":{"crossing":"traffic_signals","highway":"crossing"}},
{"type":"Feature","geometry":{"type":"Point","coordinates":[105.8297615,21.0179925]},"properties":{"crossing":"traffic_signals","highway":"crossing"}},
{"type":"Feature","geometry":{"type":"Point","coordinates":[105.829907,21.0182491]},"properties":{"crossing":"traffic_signals","highway":"traffic_signals","traffic_signals":"traffic_lights","traffic_signals:direction":"forward"}},
{"type":"Feature","geometry":{"type":"Point","coordinates":[105.8296376,21.0179264]},"properties":{"crossing":"traffic_signals","highway":"traffic_signals","traffic_signals":"traffic_lights","traffic_signals:direction":"backward"}},
{"type":"Feature","geometry":{"type":"Point","coordinates":[105.8297053,21.0178464]},"properties":{"traffic_calming":"island"}},
{"type":"Feature","geometry":{"type":"Point","coordinates":[105.8297559,21.0190321]},"properties":{"crossing":"zebra","highway":"crossing"}},
{"type":"Feature","geometry":{"type":"Point","coordinates":[105.8287896,21.019555]},"properties":{"addr:housenumber":"65","addr:street":"Đường La Thành"}},
{"type":"Feature","geometry":{"type":"Point","coordinates":[105.8285885,21.0196752]},"properties":{"addr:housenumber":"81","addr:street":"Đường La Thành","amenity":"pharmacy"}},
{"type":"Feature","geometry":{"type":"Point","coordinates":[105.8283967,21.0197766]},"properties":{"addr:street":"Đường La Thành","amenity":"bank","brand":"VietinBank","brand:wikidata":"Q7928459","brand:wikipedia":"en:Vietinbank","name":"VietinBank"}},
{"type":"Feature","geometry":{"type":"Point","coordinates":[105.8278629,21.020087]},"properties":{"addr:housenumber":"131","addr:street":"Đường La Thành"}},
{"type":"Feature","geometry":{"type":"Point","coordinates":[105.8295976,21.0186411]},"properties":{"traffic_calming":"island"}},
{"type":"Feature","geometry":{"type":"Point","coordinates":[105.8302447,21.0186697]},"properties":{"crossing":"traffic_signals","highway":"traffic_signals","traffic_signals":"traffic_lights","traffic_signals:direction":"forward"}},
{"type":"Feature","geometry":{"type":"Point","coordinates":[105.8302419,21.0190778]},"properties":{"crossing":"traffic_signals","highway":"crossing"}},
{"type":"Feature","geometry":{"type":"Point","coordinates":[105.8301311,21.0191099]},"properties":{"crossing":"traffic_signals","highway":"traffic_signals","traffic_signals":"traffic_lights","traffic_signals:direction":"forward"}},
{"type":"Feature","geometry":{"type":"Point","coordinates":[105.8295248,21.0180462]},"properties":{"crossing":"traffic_signals","highway":"crossing"}},
{"type":"Feature","geometry":{"type":"Point","coordinates":[105.8294166,21.0181754]},"properties":{"traffic_calming":"island"}},
{"type":"Feature","geometry":{"type":"Point","coordinates":[105.8282076,21.0272099]},"properties":{"addr:housenumber":"114","addr:street":"Phố An Trạch"}},
{"type":"Feature","geometry":{"type":"Point","coordinates":[105.8289331,21.0275229]},"properties":{"addr:housenumber":"90","addr:street":"Phố An Trạch"}},
{"type":"Feature","geometry":{"type":"Point","coordinates":[105.830128,21.02771]},"properties":{"addr:housenumber":"70","addr:street":"Phố An Trạch"}},
{"type":"Feature","geometry":{"type":"Point","coordinates":[105.8303775,21.0276862]},"properties":{"addr:housenumber":"52","addr:street":"Phố An Trạch"}},
{"type":"Feature","geometry":{"type":"Point","coordinates":[105.8312378,21.0276099]},"properties":{"addr:housenumber":"20","addr:street":"Phố An Trạch"}},
{"type":"Feature","geometry":{"type":"Point","coordinates":[105.8315155,21.0279765]},"properties":{"addr:housenumber":"14","addr:street":"Phố An Trạch"}},
{"type":"Feature","geometry":{"type":"Point","coordinates":[105.8315825,21.0282533]},"properties":{"addr:housenumber":"2","addr:street":"Phố An Trạch"}},
{"type":"Feature","geometry":{"type":"Point","coordinates":[105.8316743,21.0286188]},"properties":{"addr:housenumber":"21","addr:street":"Phố Cát Linh"}},
{"type":"Feature","geometry":{"type":"Point","coordinates":[105.8325887,21.0282642]},"properties":{"crossing":"marked","highway":"crossing"}},
{"type":"Feature","geometry":{"type":"Point","coordinates":[105.8286448,21.0193146]},"properties":{"addr:housenumber":"26","addr:street":"Phố Ô Chợ Dừa"}},
{"type":"Feature","geometry":{"type":"Point","coordinates":[105.8290122,21.0190567]},"properties":{"addr:housenumber":"10","addr:street":"Phố Ô Chợ Dừa"}},
{"type":"Feature","geometry":{"type":"Point","coordinates":[105.8291155,21.0193885]},"properties":{"addr:housenumber":"29","addr:street":"Đường La Thành"}},
{"type":"Feature","geometry":{"type":"Point","coordinates":[105.8282948,21.0198442]},"properties":{"addr:housenumber":"93","addr:street":"Đường La Thành"}},
{"type":"Feature","geometry":{"type":"Point","coordinates":[105.8273479,21.0203812]},"properties":{"addr:housenumber":"151","addr:street":"Đường La Thành"}},
{"type":"Feature","geometry":{"type":"Point","coordinates":[105.8268799,21.0206166]},"properties":{"addr:housenumber":"175","addr:street":"Đường La Thành"}},
{"type":"Feature","geometry":{"type":"Point","coordinates":[105.8262898,21.0209045]},"properties":{"addr:housenumber":"179","addr:street":"Đường La Thành"}},
{"type":"Feature","geometry":{"type":"Point","coordinates":[105.8259787,21.0217232]},"properties":{"addr:housenumber":"19","addr:street":"Phố Hào Nam"}},
{"type":"Feature","geometry":{"type":"Point","coordinates":[105.8269402,21.0243858]},"properties":{"addr:housenumber":"89","addr:street":"Phố Hào Nam"}},
{"type":"Feature","geometry":{"type":"Point","coordinates":[105.8269899,21.0245461]},"properties":{"addr:housenumber":"97","addr:street":"Phố Hào Nam"}},
{"type":"Feature","geometry":{"type":"Point","coordinates":[105.8271562,21.0252571]},"properties":{"addr:housenumber":"135","addr:street":"Phố Hào Nam"}},
{"type":"Feature","geometry":{"type":"Point","coordinates":[105.8273902,21.0260445]},"properties":{"addr:housenumber":"161","addr:street":"Phố Hào Nam"}},
{"type":"Feature","geometry":{"type":"Point","coordinates":[105.8288848,21.0273201]},"properties":{"addr:housenumber":"135","addr:street":"Phố An Trạch"}},
{"type":"Feature","geometry":{"type":"Point","coordinates":[105.8292711,21.0275091]},"properties":{"addr:housenumber":"121","addr:street":"Phố An Trạch"}},
{"type":"Feature","geometry":{"type":"Point","coordinates":[105.8295017,21.027628]},"properties":{"addr:housenumber":"103","addr:street":"Phố An Trạch"}},
{"type":"Feature","geometry":{"type":"Point","coordinates":[105.8298478,21.0276343]},"properties":{"addr:housenumber":"93","addr:street":"Phố An Trạch"}},
{"type":"Feature","geometry":{"type":"Point","coordinates":[105.8300221,21.0276018]},"properties":{"addr:street":"Phố An Trạch","amenity":"marketplace","name":"VinMart+"}},
{"type":"Feature","geometry":{"type":"Point","coordinates":[105.8305465,21.0275104]},"properties":{"addr:housenumber":"67","addr:street":"Phố An Trạch"}},
{"type":"Feature","geometry":{"type":"Point","coordinates":[105.8309019,21.0274753]},"properties":{"addr:housenumber":"61","addr:street":"Phố An Trạch"}},
{"type":"Feature","geometry":{"type":"Point","coordinates":[105.8312023,21.027454]},"properties":{"addr:housenumber":"37","addr:street":"Phố An Trạch"}},
{"type":"Feature","geometry":{"type":"Point","coordinates":[105.831496,21.0275367]},"properties":{"addr:housenumber":"29","addr:street":"Phố An Trạch"}},
{"type":"Feature","geometry":{"type":"Point","coordinates":[105.8316448,21.0278509]},"properties":{"addr:housenumber":"25","addr:street":"Phố An Trạch"}},
{"type":"Feature","geometry":{"type":"Point","coordinates":[105.8316757,21.0280111]},"properties":{"addr:housenumber":"19","addr:street":"Phố An Trạch"}},
{"type":"Feature","geometry":{"type":"Point","coordinates":[105.8318044,21.0284192]},"properties":{"addr:housenumber":"3","addr:street":"Phố An Trạch"}},
{"type":"Feature","geometry":{"type":"Point","coordinates":[105.8290458,21.0195662]},"properties":{"addr:housenumber":"68","addr:street":"Đường La Thành"}},
{"type":"Feature","geometry":{"type":"Point","coordinates":[105.8288272,21.0197177]},"properties":{"addr:housenumber":"82","addr:street":"Đường La Thành"}},
{"type":"Feature","geometry":{"type":"Point","coordinates":[105.8285925,21.0198717]},"properties":{"addr:housenumber":"96","addr:street":"Đường La Thành"}},
{"type":"Feature","geometry":{"type":"Point","coordinates":[105.828343,21.0200057]},"properties":{"addr:housenumber":"106","addr:street":"Đường La Thành"}},
{"type":"Feature","geometry":{"type":"Point","coordinates":[105.82782,21.0202904]},"properties":{"addr:housenumber":"138","addr:street":"Đường La Thành"}},
{"type":"Feature","geometry":{"type":"Point","coordinates":[105.8271689,21.0206516]},"properties":{"addr:housenumber":"180","addr:street":"Đường La Thành"}},
{"type":"Feature","geometry":{"type":"Point","coordinates":[105.8268826,21.0207818]},"properties":{"addr:housenumber":"204","addr:street":"Đường La Thành"}},
{"type":"Feature","geometry":{"type":"Point","coordinates":[105.8267163,21.0208563]},"properties":{"addr:housenumber":"212","addr:street":"Đường La Thành"}},
{"type":"Feature","geometry":{"type":"Point","coordinates":[105.8268893,21.0230451]},"properties":{"addr:housenumber":"40","addr:street":"Phố Hào Nam"}},
{"type":"Feature","geometry":{"type":"Point","coordinates":[105.8264212,21.021812099999999]},"properties":{"addr:housenumber":"28","addr:street":"Phố Hào Nam"}},
{"type":"Feature","geometry":{"type":"Point","coordinates":[105.8283792,21.0271198]},"properties":{"addr:housenumber":"165","addr:street":"Phố An Trạch"}},
{"type":"Feature","geometry":{"type":"Point","coordinates":[105.8286086,21.0272024]},"properties":{"addr:housenumber":"151","addr:street":"Phố An Trạch"}},
{"type":"Feature","geometry":{"type":"Point","coordinates":[105.823195,21.019736]},"properties":{"name":"Vinmart Hoàng Cầu","shop":"supermarket"}},
{"type":"Feature","geometry":{"type":"Point","coordinates":[105.828214,21.0155853]},"properties":{"name":"Vm+ 150 nguyễn lương bằng","shop":"supermarket"}},
{"type":"Feature","geometry":{"type":"Point","coordinates":[105.8222805,21.013769]},"properties":{"name":"Vm+ 169 đặng tiến đông","shop":"supermarket"}},
{"type":"Feature","geometry":{"type":"Point","coordinates":[105.8321221,21.0233735]},"properties":{"crossing":"marked","highway":"crossing"}},
{"type":"Feature","geometry":{"type":"Point","coordinates":[105.8303441,21.0191108]},"properties":{"crossing":"marked","crossing:markings":"yes","highway":"crossing"}},
{"type":"Feature","geometry":{"type":"Point","coordinates":[105.8272809,21.0199595]},"properties":{"crossing":"uncontrolled","highway":"crossing"}},
{"type":"Feature","geometry":{"type":"Point","coordinates":[105.8271922,21.0198114]},"properties":{"crossing":"uncontrolled","highway":"crossing"}},
{"type":"Feature","geometry":{"type":"Point","coordinates":[105.830071,21.018703]},"properties":{"highway":"traffic_signals","traffic_signals":"traffic_lights","traffic_signals:direction":"forward"}},
{"type":"Feature","geometry":{"type":"Point","coordinates":[105.8307382,21.0206616]},"properties":{"addr:street":"Phố Tôn Đức Thắng","amenity":"bank","brand":"VietinBank","brand:wikidata":"Q7928459","name":"VietinBank"}},
{"type":"Feature","geometry":{"type":"Point","coordinates":[105.8306827,21.0200819]},"properties":{"crossing":"marked","crossing:markings":"yes","highway":"crossing"}},
{"type":"Feature","geometry":{"type":"Point","coordinates":[105.8306149,21.0201129]},"properties":{"crossing":"marked","crossing:markings":"yes","highway":"crossing"}},
{"type":"Feature","geometry":{"type":"Point","coordinates":[105.8309503,21.0208182]},"properties":{"crossing":"marked","highway":"crossing"}},
{"type":"Feature","geometry":{"type":"Point","coordinates":[105.8332166,21.0260933]},"properties":{"amenity":"restaurant","name":"Pizza Hut"}},
{"type":"Feature","geometry":{"type":"Point","coordinates":[105.8278334,21.0193246]},"properties":{"addr:housenumber":"47","addr:street":"Phố Ô Chợ Dừa"}},
{"type":"Feature","geometry":{"type":"Point","coordinates":[105.8279206,21.0192971]},"properties":{"addr:housenumber":"45","addr:street":"Phố Ô Chợ Dừa"}},
{"type":"Feature","geometry":{"type":"Point","coordinates":[105.8204976,21.0128048]},"properties":{"addr:housenumber":"174","addr:street":"Phố Thái Hà"}},
{"type":"Feature","geometry":{"type":"Point","coordinates":[105.8201778,21.0129573]},"properties":{"barrier":"gate"}},
{"type":"Feature","geometry":{"type":"Point","coordinates":[105.8222236,21.0159421]},"properties":{"addr:housenumber":"16","addr:street":"Ngõ 113 Hoàng Cầu"}},
{"type":"Feature","geometry":{"type":"Point","coordinates":[105.8223637,21.0158519]},"properties":{"addr:housenumber":"7","addr:street":"Ngõ 113 Hoàng Cầu"}},
{"type":"Feature","geometry":{"type":"Point","coordinates":[105.8223657,21.0159302]},"properties":{"addr:housenumber":"5","addr:street":"Ngõ 113 Hoàng Cầu"}},
{"type":"Feature","geometry":{"type":"Point","coordinates":[105.8233386,21.0164392]},"properties":{"crossing":"traffic_signals","highway":"crossing"}},
{"type":"Feature","geometry":{"type":"Point","coordinates":[105.8232619,21.0165588]},"properties":{"crossing":"traffic_signals","highway":"traffic_signals","traffic_signals":"traffic_lights","traffic_signals:direction":"forward"}},
{"type":"Feature","geometry":{"type":"Point","coordinates":[105.824595,21.0155279]},"properties":{"crossing":"uncontrolled","highway":"crossing"}},
{"type":"Feature","geometry":{"type":"Point","coordinates":[105.8245682,21.0156339]},"properties":{"crossing":"uncontrolled","highway":"crossing"}},
{"type":"Feature","geometry":{"type":"Point","coordinates":[105.8244658,21.0156021]},"properties":{"crossing":"uncontrolled","highway":"crossing"}},
{"type":"Feature","geometry":{"type":"Point","coordinates":[105.8244649,21.0154881]},"properties":{"crossing":"uncontrolled","highway":"crossing"}},
{"type":"Feature","geometry":{"type":"Point","coordinates":[105.8241776,21.0151809]},"properties":{"addr:housenumber":"56","addr:street":"Phố Trần Quang Diệu"}},
{"type":"Feature","geometry":{"type":"Point","coordinates":[105.8242437,21.0149591]},"properties":{"addr:housenumber":"63","addr:street":"Phố Trần Quang Diệu"}},
{"type":"Feature","geometry":{"type":"Point","coordinates":[105.8237947,21.0144686]},"properties":{"addr:housenumber":"75","addr:street":"Phố Trần Quang Diệu"}},
{"type":"Feature","geometry":{"type":"Point","coordinates":[105.8273698,21.0293022]},"properties":{"crossing":"traffic_signals","highway":"crossing"}},
{"type":"Feature","geometry":{"type":"Point","coordinates":[105.8247482,21.0103285]},"properties":{"addr:housenumber":"178","addr:street":"Phố Tây Sơn"}},
{"type":"Feature","geometry":{"type":"Point","coordinates":[105.8266298,21.0128236]},"properties":{"addr:housenumber":"35","addr:street":"Phố Tây Sơn"}},
{"type":"Feature","geometry":{"type":"Point","coordinates":[105.8265339,21.0126433]},"properties":{"addr:housenumber":"31","addr:street":"Phố Tây Sơn"}},
{"type":"Feature","geometry":{"type":"Point","coordinates":[105.8263569,21.0123466]},"properties":{"addr:housenumber":"67","addr:street":"Phố Tây Sơn"}},
{"type":"Feature","geometry":{"type":"Point","coordinates":[105.8261758,21.0120661]},"properties":{"addr:housenumber":"83","addr:street":"Phố Tây Sơn"}},
{"type":"Feature","geometry":{"type":"Point","coordinates":[105.8259009,21.0116205]},"properties":{"addr:housenumber":"107","addr:street":"Phố Tây Sơn"}},
{"type":"Feature","geometry":{"type":"Point","coordinates":[105.8264796,21.0129343]},"properties":{"addr:housenumber":"82","addr:street":"Phố Tây Sơn"}},
{"type":"Feature","geometry":{"type":"Point","coordinates":[105.8264179,21.0128386]},"properties":{"addr:housenumber":"88","addr:street":"Phố Tây Sơn"}},
{"type":"Feature","geometry":{"type":"Point","coordinates":[105.8262241,21.0125581]},"properties":{"addr:housenumber":"104","addr:street":"Phố Tây Sơn"}},
{"type":"Feature","geometry":{"type":"Point","coordinates":[105.826145,21.0124355]},"properties":{"addr:housenumber":"110","addr:street":"Phố Tây Sơn"}},
{"type":"Feature","geometry":{"type":"Point","coordinates":[105.8259042,21.0120204]},"properties":{"addr:housenumber":"134","addr:street":"Phố Tây Sơn"}},
{"type":"Feature","geometry":{"type":"Point","coordinates":[105.8257976,21.0118696]},"properties":{"addr:housenumber":"144","addr:street":"Phố Tây Sơn"}},
{"type":"Feature","geometry":{"type":"Point","coordinates":[105.8255971,21.0115616]},"properties":{"addr:housenumber":"162","addr:street":"Phố Tây Sơn"}},
{"type":"Feature","geometry":{"type":"Point","coordinates":[105.8250128,21.0107629]},"properties":{"crossing":"marked","highway":"crossing"}},
{"type":"Feature","geometry":{"type":"Point","coordinates":[105.8256474,21.0112637]},"properties":{"addr:housenumber":"127","addr:street":"Phố Tây Sơn"}},
{"type":"Feature","geometry":{"type":"Point","coordinates":[105.8255602,21.0110934]},"properties":{"addr:housenumber":"139","addr:street":"Phố Tây Sơn"}},
{"type":"Feature","geometry":{"type":"Point","coordinates":[105.8268746,21.013363]},"properties":{"button_operated":"no","crossing":"traffic_signals","highway":"traffic_signals","traffic_signals":"traffic_lights","traffic_signals:direction":"forward","traffic_signals:sound":"no"}},
{"type":"Feature","geometry":{"type":"Point","coordinates":[105.8269013,21.0132542]},"properties":{"addr:housenumber":"11","addr:street":"Phố Tây Sơn"}},
{"type":"Feature","geometry":{"type":"Point","coordinates":[105.8260323,21.011812]},"properties":{"addr:housenumber":"93","addr:street":"Phố Tây Sơn"}},
{"type":"Feature","geometry":{"type":"Point","coordinates":[105.826837,21.0131691]},"properties":{"addr:housenumber":"19","addr:street":"Phố Tây Sơn"}},
{"type":"Feature","geometry":{"type":"Point","coordinates":[105.8267136,21.0129613]},"properties":{"addr:housenumber":"29","addr:street":"Phố Tây Sơn"}},
{"type":"Feature","geometry":{"type":"Point","coordinates":[105.8218876,21.014287]},"properties":{"barrier":"gate"}},
{"type":"Feature","geometry":{"type":"Point","coordinates":[105.8224742,21.0134887]},"properties":{"crossing":"uncontrolled","highway":"crossing"}},
{"type":"Feature","geometry":{"type":"Point","coordinates":[105.8278991,21.0148754]},"properties":{"addr:housenumber":"161","addr:street":"Phố Nguyễn Lương Bằng"}},
{"type":"Feature","geometry":{"type":"Point","coordinates":[105.8277342,21.0146463]},"properties":{"addr:housenumber":"175","addr:street":"Phố Nguyễn Lương Bằng"}},
{"type":"Feature","geometry":{"type":"Point","coordinates":[105.8276604,21.0144761]},"properties":{"addr:housenumber":"179","addr:street":"Phố Nguyễn Lương Bằng"}},
{"type":"Feature","geometry":{"type":"Point","coordinates":[105.8276483,21.0148491]},"properties":{"addr:housenumber":"188","addr:street":"Phố Nguyễn Lương Bằng"}},
{"type":"Feature","geometry":{"type":"Point","coordinates":[105.8276054,21.0147891]},"properties":{"addr:housenumber":"190","addr:street":"Phố Nguyễn Lương Bằng"}},
{"type":"Feature","geometry":{"type":"Point","coordinates":[105.8272594,21.014272]},"properties":{"addr:housenumber":"218","addr:street":"Phố Nguyễn Lương Bằng"}},
{"type":"Feature","geometry":{"type":"Point","coordinates":[105.8270037,21.0134352]},"properties":{"highway":"traffic_signals","traffic_signals:direction":"forward"}},
{"type":"Feature","geometry":{"type":"Point","coordinates":[105.8269118,21.0135652]},"properties":{"highway":"traffic_signals","traffic_signals:direction":"forward"}},
{"type":"Feature","geometry":{"type":"Point","coordinates":[105.8268116,21.0133965]},"properties":{"button_operated":"no","crossing":"traffic_signals","highway":"crossing","traffic_signals:sound":"no"}},
{"type":"Feature","geometry":{"type":"Point","coordinates":[105.8288594,21.0291252]},"properties":{"addr:housenumber":"33","addr:street":"Phố Cát Linh"}},
{"type":"Feature","geometry":{"type":"Point","coordinates":[105.8281258,21.0292741]},"properties":{"addr:housenumber":"37","addr:street":"Phố Cát Linh"}},
{"type":"Feature","geometry":{"type":"Point","coordinates":[105.8309103,21.0288761]},"properties":{"crossing":"marked","highway":"crossing"}},
{"type":"Feature","geometry":{"type":"Point","coordinates":[105.8309241,21.0289418]},"properties":{"crossing":"marked","highway":"crossing"}},
{"type":"Feature","geometry":{"type":"Point","coordinates":[105.8312995,21.0213426]},"properties":{"addr:housenumber":"225","addr:street":"Phố Tôn Đức Thắng"}},
{"type":"Feature","geometry":{"type":"Point","coordinates":[105.8312472,21.0211749]},"properties":{"addr:housenumber":"231","addr:street":"Phố Tôn Đức Thắng"}},
{"type":"Feature","geometry":{"type":"Point","coordinates":[105.8310809,21.0208187]},"properties":{"addr:housenumber":"253","addr:street":"Phố Tôn Đức Thắng"}},
{"type":"Feature","geometry":{"type":"Point","coordinates":[105.8310407,21.0207511]},"properties":{"addr:housenumber":"257","addr:street":"Phố Tôn Đức Thắng"}},
{"type":"Feature","geometry":{"type":"Point","coordinates":[105.8309481,21.0205208]},"properties":{"addr:housenumber":"267","addr:street":"Phố Tôn Đức Thắng"}},
{"type":"Feature","geometry":{"type":"Point","coordinates":[105.8309112,21.0204175]},"properties":{"addr:housenumber":"273","addr:street":"Phố Tôn Đức Thắng"}},
{"type":"Feature","geometry":{"type":"Point","coordinates":[105.8306243,21.0198003]},"properties":{"addr:housenumber":"293","addr:street":"Phố Tôn Đức Thắng"}},
{"type":"Feature","geometry":{"type":"Point","coordinates":[105.8305827,21.0197065]},"properties":{"addr:housenumber":"303","addr:street":"Phố Tôn Đức Thắng"}},
{"type":"Feature","geometry":{"type":"Point","coordinates":[105.8304124,21.019376]},"properties":{"addr:housenumber":"317","addr:street":"Phố Tôn Đức Thắng"}},
{"type":"Feature","geometry":{"type":"Point","coordinates":[105.8273025,21.0153423]},"properties":{"barrier":"lift_gate"}},
{"type":"Feature","geometry":{"type":"Point","coordinates":[105.8277728,21.0150825]},"properties":{"crossing":"traffic_signals","highway":"traffic_signals","traffic_signals:direction":"forward"}},
{"type":"Feature","geometry":{"type":"Point","coordinates":[105.8279262,21.0151041]},"properties":{"crossing":"traffic_signals","highway":"crossing"}},
{"type":"Feature","geometry":{"type":"Point","coordinates":[105.8278604,21.0151389]},"properties":{"crossing":"traffic_signals","highway":"traffic_signals","traffic_signals":"traffic_lights","traffic_signals:direction":"forward"}},
{"type":"Feature","geometry":{"type":"Point","coordinates":[105.8279176,21.015008]},"properties":{"highway":"traffic_signals","traffic_signals":"traffic_lights","traffic_signals:direction":"backward"}},
{"type":"Feature","geometry":{"type":"Point","coordinates":[105.8277726,21.0149933]},"properties":{"crossing":"traffic_signals","highway":"crossing"}},
{"type":"Feature","geometry":{"type":"Point","coordinates":[105.8278367,21.0149552]},"properties":{"crossing":"traffic_signals","highway":"traffic_signals","traffic_signals":"traffic_lights","traffic_signals:direction":"forward"}},
{"type":"Feature","geometry":{"type":"Point","coordinates":[105.8295795,21.0289912]},"properties":{"addr:housenumber":"29","addr:street":"Phố Cát Linh","name":"Mộc Châu Milk Company","office":"yes"}},
{"type":"Feature","geometry":{"type":"Point","coordinates":[105.8292485,21.028952]},"properties":{"barrier":"gate"}},
{"type":"Feature","geometry":{"type":"Point","coordinates":[105.8291826,21.0290551]},"properties":{"addr:housenumber":"33","addr:street":"Phố Cát Linh"}},
{"type":"Feature","geometry":{"type":"Point","coordinates":[105.8281975,21.0292854]},"properties":{"addr:housenumber":"37","addr:street":"Phố Cát Linh"}},
{"type":"Feature","geometry":{"type":"Point","coordinates":[105.8259907,21.0153837]},"properties":{"addr:housenumber":"102","addr:street":"Ngõ 19 Trần Quang Diệu"}},
{"type":"Feature","geometry":{"type":"Point","coordinates":[105.8262268,21.0157618]},"properties":{"addr:housenumber":"80","addr:street":"Ngõ 64"}},
{"type":"Feature","geometry":{"type":"Point","coordinates":[105.8263609,21.0160122]},"properties":{"addr:housenumber":"68","addr:street":"Ngõ 64"}},
{"type":"Feature","geometry":{"type":"Point","coordinates":[105.8266237,21.0164315]},"properties":{"addr:housenumber":"50","addr:street":"Ngõ 64"}},
{"type":"Feature","geometry":{"type":"Point","coordinates":[105.8268853,21.0168998]},"properties":{"addr:housenumber":"30","addr:street":"Ngõ 64"}},
{"type":"Feature","geometry":{"type":"Point","coordinates":[105.8269268,21.0169786]},"properties":{"addr:housenumber":"26","addr:street":"Ngõ 64"}},
{"type":"Feature","geometry":{"type":"Point","coordinates":[105.8275746,21.016921]},"properties":{"noexit":"yes"}},
{"type":"Feature","geometry":{"type":"Point","coordinates":[105.827195,21.0170562]},"properties":{"addr:housenumber":"75","addr:street":"Ngõ 59 Hoàng Cầu"}},
{"type":"Feature","geometry":{"type":"Point","coordinates":[105.8275343,21.0154113]},"properties":{"addr:housenumber":"10","addr:street":"Ngõ 178 Nguyễn Lương Bằng"}},
{"type":"Feature","geometry":{"type":"Point","coordinates":[105.827592,21.015569]},"properties":{"addr:housenumber":"24","addr:street":"Ngõ 178 Nguyễn Lương Bằng"}},
{"type":"Feature","geometry":{"type":"Point","coordinates":[105.8302675,21.0196714]},"properties":{"addr:housenumber":"292","addr:street":"Phố Tôn Đức Thắng"}},
{"type":"Feature","geometry":{"type":"Point","coordinates":[105.830808,21.020778]},"properties":{"addr:housenumber":"248","addr:street":"Phố Tôn Đức Thắng"}},
{"type":"Feature","geometry":{"type":"Point","coordinates":[105.8313069,21.0218509]},"properties":{"addr:housenumber":"218","addr:street":"Phố Tôn Đức Thắng"}},
{"type":"Feature","geometry":{"type":"Point","coordinates":[105.8317977,21.0228824]},"properties":{"addr:housenumber":"182","addr:street":"Phố Tôn Đức Thắng"}},
{"type":"Feature","geometry":{"type":"Point","coordinates":[105.831854,21.0230201]},"properties":{"addr:housenumber":"176","addr:street":"Phố Tôn Đức Thắng"}},
{"type":"Feature","geometry":{"type":"Point","coordinates":[105.8319774,21.023298]},"properties":{"addr:housenumber":"168","addr:street":"Phố Tôn Đức Thắng"}},
{"type":"Feature","geometry":{"type":"Point","coordinates":[105.8323543,21.0241705]},"properties":{"addr:housenumber":"162","addr:street":"Phố Tôn Đức Thắng"}},
{"type":"Feature","geometry":{"type":"Point","coordinates":[105.8326091,21.0246625]},"properties":{"addr:housenumber":"160","addr:street":"Phố Tôn Đức Thắng"}},
{"type":"Feature","geometry":{"type":"Point","coordinates":[105.830184,21.029172]},"properties":{"barrier":"gate"}},
{"type":"Feature","geometry":{"type":"Point","coordinates":[105.8259076,21.0155853]},"properties":{"addr:housenumber":"34","addr:street":"Ngõ 19 Trần Quang Diệu"}},
{"type":"Feature","geometry":{"type":"Point","coordinates":[105.8257252,21.0157505]},"properties":{"addr:housenumber":"25","addr:street":"Ngõ 19 Trần Quang Diệu"}},
{"type":"Feature","geometry":{"type":"Point","coordinates":[105.8250788,21.0163614]},"properties":{"addr:housenumber":"11","addr:street":"Phố Trần Quang Diệu"}},
{"type":"Feature","geometry":{"type":"Point","coordinates":[105.8251365,21.0160835]},"properties":{"addr:housenumber":"1","addr:street":"Ngõ 19 Trần Quang Diệu"}},
{"type":"Feature","geometry":{"type":"Point","coordinates":[105.8260216,21.0174669]},"properties":{"addr:housenumber":"6","addr:street":"Ngõ 59 Hoàng Cầu"}},
{"type":"Feature","geometry":{"type":"Point","coordinates":[105.8247913,21.0180949]},"properties":{"crossing":"marked","highway":"crossing"}},
{"type":"Feature","geometry":{"type":"Point","coordinates":[105.826735,21.0189779]},"properties":{"addr:housenumber":"62","addr:street":"Ngõ Giếng Hoàng Cầu"}},
{"type":"Feature","geometry":{"type":"Point","coordinates":[105.826786,21.018864]},"properties":{"addr:housenumber":"55","addr:street":"Ngõ Giếng Hoàng Cầu"}},
{"type":"Feature","geometry":{"type":"Point","coordinates":[105.8265862,21.0184909]},"properties":{"addr:housenumber":"69","addr:street":"Ngõ Giếng Hoàng Cầu"}},
{"type":"Feature","geometry":{"type":"Point","coordinates":[105.8262509,21.0174706]},"properties":{"addr:housenumber":"55","addr:street":"Ngàch 59/65 Hoàng Cầu"}},
{"type":"Feature","geometry":{"type":"Point","coordinates":[105.8263623,21.0183827]},"properties":{"addr:housenumber":"86","addr:street":"Ngõ 31 Hoàng Cầu"}},
{"type":"Feature","geometry":{"type":"Point","coordinates":[105.8267136,21.0181523]},"properties":{"addr:housenumber":"27","addr:street":"Ngõ 31 Hoàng Cầu"}},
{"type":"Feature","geometry":{"type":"Point","coordinates":[105.8265553,21.0178574]},"properties":{"addr:housenumber":"5","addr:street":"Ngàch 59/65 Hoàng Cầu"}},
{"type":"Feature","geometry":{"type":"Point","coordinates":[105.8264507,21.0177272]},"properties":{"addr:housenumber":"13","addr:street":"Ngàch 59/65 Hoàng Cầu"}},
{"type":"Feature","geometry":{"type":"Point","coordinates":[105.8266063,21.0197277]},"properties":{"addr:housenumber":"153","addr:street":"Phố Đông Các"}},
{"type":"Feature","geometry":{"type":"Point","coordinates":[105.8264695,21.0198279]},"properties":{"addr:housenumber":"159","addr:street":"Phố Đông Các"}},
{"type":"Feature","geometry":{"type":"Point","coordinates":[105.826035,21.020062]},"properties":{"addr:housenumber":"173","addr:street":"Phố Đông Các"}},
{"type":"Feature","geometry":{"type":"Point","coordinates":[105.8259867,21.0200858]},"properties":{"addr:housenumber":"177","addr:street":"Phố Đông Các"}},
{"type":"Feature","geometry":{"type":"Point","coordinates":[105.8266975,21.0197928]},"properties":{"addr:housenumber":"118","addr:street":"Phố Đông Các"}},
{"type":"Feature","geometry":{"type":"Point","coordinates":[105.8259237,21.020211]},"properties":{"addr:housenumber":"180","addr:street":"Phố Đông Các"}},
{"type":"Feature","geometry":{"type":"Point","coordinates":[105.8261101,21.0195199]},"properties":{"addr:housenumber":"9","addr:street":"Ngõ 9 Hoàng Cầu"}},
{"type":"Feature","geometry":{"type":"Point","coordinates":[105.8268262,21.0192696]},"properties":{"addr:housenumber":"25","addr:street":"Ngõ 9 Hoàng Cầu"}},
{"type":"Feature","geometry":{"type":"Point","coordinates":[105.8223954,21.0136686]},"properties":{"crossing":"uncontrolled","highway":"crossing"}},
{"type":"Feature","geometry":{"type":"Point","coordinates":[105.8226792,21.0136623]},"properties":{"crossing":"uncontrolled","highway":"crossing"}},
{"type":"Feature","geometry":{"type":"Point","coordinates":[105.8226259,21.0133911]},"properties":{"crossing":"uncontrolled","highway":"crossing"}},
{"type":"Feature","geometry":{"type":"Point","coordinates":[105.8234373,21.0124676]},"properties":{"crossing":"uncontrolled","highway":"crossing"}},
{"type":"Feature","geometry":{"type":"Point","coordinates":[105.8252136,21.0273345]},"properties":{"addr:housenumber":"5","addr:street":"Phố Vũ Thạnh"}},
{"type":"Feature","geometry":{"type":"Point","coordinates":[105.8253665,21.0271905]},"properties":{"addr:housenumber":"9","addr:street":"Phố Vũ Thạnh"}},
{"type":"Feature","geometry":{"type":"Point","coordinates":[105.8254677,21.0271104]},"properties":{"addr:housenumber":"15","addr:street":"Phố Vũ Thạnh"}},
{"type":"Feature","geometry":{"type":"Point","coordinates":[105.8260618,21.026790600000003]},"properties":{"addr:housenumber":"39","addr:street":"Phố Vũ Thạnh"}},
{"type":"Feature","geometry":{"type":"Point","coordinates":[105.8262818,21.0266917]},"properties":{"addr:housenumber":"43","addr:street":"Phố Vũ Thạnh"}},
{"type":"Feature","geometry":{"type":"Point","coordinates":[105.8263884,21.0266598]},"properties":{"addr:housenumber":"51","addr:street":"Phố Vũ Thạnh"}},
{"type":"Feature","geometry":{"type":"Point","coordinates":[105.8265044,21.0266103]},"properties":{"addr:housenumber":"55","addr:street":"Phố Vũ Thạnh"}},
{"type":"Feature","geometry":{"type":"Point","coordinates":[105.8266237,21.0265546]},"properties":{"addr:housenumber":"61","addr:street":"Phố Vũ Thạnh"}},
{"type":"Feature","geometry":{"type":"Point","coordinates":[105.8272051,21.0263543]},"properties":{"addr:housenumber":"63","addr:street":"Phố Vũ Thạnh"}},
{"type":"Feature","geometry":{"type":"Point","coordinates":[105.8276276,21.0254831]},"properties":{"addr:housenumber":"142","addr:street":"Phố Hào Nam"}},
{"type":"Feature","geometry":{"type":"Point","coordinates":[105.8272943,21.0243445]},"properties":{"addr:housenumber":"94","addr:street":"Phố Hào Nam"}},
{"type":"Feature","geometry":{"type":"Point","coordinates":[105.8271495,21.0238188]},"properties":{"addr:housenumber":"70","addr:street":"Phố Hào Nam"}},
{"type":"Feature","geometry":{"type":"Point","coordinates":[105.8271072,21.023723]},"properties":{"addr:housenumber":"66","addr:street":"Phố Hào Nam"}},
{"type":"Feature","geometry":{"type":"Point","coordinates":[105.8270515,21.0234952]},"properties":{"addr:housenumber":"58","addr:street":"Phố Hào Nam"}},
{"type":"Feature","geometry":{"type":"Point","coordinates":[105.8269563,21.0231872]},"properties":{"addr:housenumber":"44","addr:street":"Phố Hào Nam"}},
{"type":"Feature","geometry":{"type":"Point","coordinates":[105.826676,21.0223651]},"properties":{"addr:housenumber":"32","addr:street":"Phố Hào Nam"}},
{"type":"Feature","geometry":{"type":"Point","coordinates":[105.8262858,21.0265803]},"properties":{"addr:housenumber":"108","addr:street":"Phố Vũ Thạnh"}},
{"type":"Feature","geometry":{"type":"Point","coordinates":[105.8268336,21.0263881]},"properties":{"addr:housenumber":"8","addr:street":"Phố Vũ Thạnh"}},
{"type":"Feature","geometry":{"type":"Point","coordinates":[105.826894,21.0263668]},"properties":{"addr:housenumber":"10","addr:street":"Phố Vũ Thạnh"}},
{"type":"Feature","geometry":{"type":"Point","coordinates":[105.8270375,21.026313]},"properties":{"addr:housenumber":"16","addr:street":"Phố Vũ Thạnh"}},
{"type":"Feature","geometry":{"type":"Point","coordinates":[105.8237323,21.0159649]},"properties":{"name":"Vm+ 16 võ văn dũng","shop":"supermarket"}},
{"type":"Feature","geometry":{"type":"Point","coordinates":[105.829945,21.0275658]},"properties":{"name":"Vm+ 83 An Trạch","shop":"supermarket"}},
{"type":"Feature","geometry":{"type":"Point","coordinates":[105.8258581,21.0267824]},"properties":{"name":"Vm+ 41 Vũ thạnh","shop":"supermarket"}},
{"type":"Feature","geometry":{"type":"Point","coordinates":[105.8211463,21.0160294]},"properties":{"addr:city":"Hà Nội","addr:district":"Đống Đa","addr:housenumber":"66","addr:province":"Hà Nội","addr:street":"Phố Hoàng Cầu","addr:subdistrict":"Chợ Dừa","air_conditioning":"yes","amenity":"cafe","cuisine":"coffee_shop","internet_access":"yes","internet_access:fee":"yes","name":"Cà Phê La Ka","phone":"+84 24 3200 5153"}},
{"type":"Feature","geometry":{"type":"Point","coordinates":[105.8223999,21.0162849]},"properties":{"addr:city":"Hà Nội","addr:district":"Đống Đa","addr:housenumber":"67","addr:province":"Hà Nội","addr:street":"Phố Hoàng Cầu","addr:subdistrict":"Chợ Dừa","air_conditioning":"yes","amenity":"restaurant","cuisine":"japanese","internet_access":"yes","name":"Nhà Hàng Sio Sushi","name:en":"Sio Sushi","phone":"+84 392 128 668"}},
{"type":"Feature","geometry":{"type":"Point","coordinates":[105.8212431,21.012036]},"properties":{"addr:full":"132 Thái Hà, Hà Nội, Đống Đa, Việt Nam","addr:housenumber":"132","addr:street":"Thái Hà","alt_name":"An Phước Hà Nội 16 - Thái Hà","clothes":"suits","name":"Cửa Hàng Thời Trang An Phước","name:en":"An Phuoc","opening_hours":"7:30-21:30","phone":"024 3537 9860","shop":"clothes"}},
{"type":"Feature","geometry":{"type":"Point","coordinates":[105.8273641,21.0281688]},"properties":{"name":"Cát Linh","name:en":"Cat Linh","public_transport":"stop_position","railway":"stop","ref":"C01","subway":"yes"}},
{"type":"Feature","geometry":{"type":"Point","coordinates":[105.8272207,21.0281565]},"properties":{"name":"Cát Linh","name:en":"Cat Linh","public_transport":"stop_position","railway":"stop","ref":"C01","subway":"yes"}},
{"type":"Feature","geometry":{"type":"Point","coordinates":[105.8271458,21.0290821]},"properties":{"railway":"buffer_stop"}},
{"type":"Feature","geometry":{"type":"Point","coordinates":[105.8194546,21.0145187]},"properties":{"name":"Thái Hà","name:en":"Thai Ha","public_transport":"stop_position","railway":"stop","ref":"C03","subway":"yes"}},
{"type":"Feature","geometry":{"type":"Point","coordinates":[105.8253538,21.020136]},